fascia,town,suburb,county,postcode,lon,lat,
Lidl,Enniskillen,,Fermanagh,BT74 6GG,-7.628719634,54.34532432,"{ ""tooltip"": ""Lidl<br/>Enniskillen<br/>Fermanagh<br/>BT74 6GG"", ""geometry"": { ""coordinates"": [ -7.628719634, 54.34532432 ] } },"
Lidl,Omagh,,Tyrone,BT78 1QX,-7.307531429,54.59736752,"{ ""tooltip"": ""Lidl<br/>Omagh<br/>Tyrone<br/>BT78 1QX"", ""geometry"": { ""coordinates"": [ -7.307531429, 54.59736752 ] } },"
Lidl,Strabane,,Tyrone,BT82 9PU,-7.470231797,54.82563183,"{ ""tooltip"": ""Lidl<br/>Strabane<br/>Tyrone<br/>BT82 9PU"", ""geometry"": { ""coordinates"": [ -7.470231797, 54.82563183 ] } },"
Lidl,Cookstown,Cookstown,Tyrone,BT80 8PA,-6.740613499,54.64663907,"{ ""tooltip"": ""Lidl<br/>Cookstown<br/>Tyrone<br/>BT80 8PA"", ""geometry"": { ""coordinates"": [ -6.740613499, 54.64663907 ] } },"
Lidl,"Wick, Highland",,Highland,KW1 5NH,-3.096027505,58.43250051,"{ ""tooltip"": ""Lidl<br/>Wick, Highland<br/>Highland<br/>KW1 5NH"", ""geometry"": { ""coordinates"": [ -3.096027505, 58.43250051 ] } },"
Aldi,Lancaster,Central Lancaster,Lancashire,LA1 1UJ,-2.802332153,54.0442079,"{ ""tooltip"": ""Aldi<br/>Lancaster<br/>Lancashire<br/>LA1 1UJ"", ""geometry"": { ""coordinates"": [ -2.802332153, 54.0442079 ] } },"
Lidl,Lancaster,Freehold,Lancashire,LA1 1BS,-2.793868365,54.0543255,"{ ""tooltip"": ""Lidl<br/>Lancaster<br/>Lancashire<br/>LA1 1BS"", ""geometry"": { ""coordinates"": [ -2.793868365, 54.0543255 ] } },"
Aldi,Morecambe,Sandylands,Lancashire,LA4 4DB,-2.875847912,54.06965932,"{ ""tooltip"": ""Aldi<br/>Morecambe<br/>Lancashire<br/>LA4 4DB"", ""geometry"": { ""coordinates"": [ -2.875847912, 54.06965932 ] } },"
Aldi,Lancaster,Skerton,Lancashire,LA1 5JB,-2.819094498,54.05662648,"{ ""tooltip"": ""Aldi<br/>Lancaster<br/>Lancashire<br/>LA1 5JB"", ""geometry"": { ""coordinates"": [ -2.819094498, 54.05662648 ] } },"
Aldi,Carnforth,,Lancashire,LA5 9JZ,-2.767040787,54.1304889,"{ ""tooltip"": ""Aldi<br/>Carnforth<br/>Lancashire<br/>LA5 9JZ"", ""geometry"": { ""coordinates"": [ -2.767040787, 54.1304889 ] } },"
Aldi,Barnoldswick,,Lancashire,BB18 5DD,-2.184782157,53.92169584,"{ ""tooltip"": ""Aldi<br/>Barnoldswick<br/>Lancashire<br/>BB18 5DD"", ""geometry"": { ""coordinates"": [ -2.184782157, 53.92169584 ] } },"
Aldi,Colne,,Lancashire,BB8 9HH,-2.169265436,53.85936988,"{ ""tooltip"": ""Aldi<br/>Colne<br/>Lancashire<br/>BB8 9HH"", ""geometry"": { ""coordinates"": [ -2.169265436, 53.85936988 ] } },"
Lidl,"Halstead, Essex",,Essex,CO9 1HJ,0.634481949,51.94264741,"{ ""tooltip"": ""Lidl<br/>Halstead, Essex<br/>Essex<br/>CO9 1HJ"", ""geometry"": { ""coordinates"": [ 0.634481949, 51.94264741 ] } },"
Lidl,Rawtenstall,,Lancashire,BB4 7ND,-2.284381853,53.70027063,"{ ""tooltip"": ""Lidl<br/>Rawtenstall<br/>Lancashire<br/>BB4 7ND"", ""geometry"": { ""coordinates"": [ -2.284381853, 53.70027063 ] } },"
Aldi,Rawtenstall,,Lancashire,BB4 6HW,-2.298725647,53.69743872,"{ ""tooltip"": ""Aldi<br/>Rawtenstall<br/>Lancashire<br/>BB4 6HW"", ""geometry"": { ""coordinates"": [ -2.298725647, 53.69743872 ] } },"
Lidl,Oakham,,Rutland,LE15 6RQ,-0.737159066,52.67547904,"{ ""tooltip"": ""Lidl<br/>Oakham<br/>Rutland<br/>LE15 6RQ"", ""geometry"": { ""coordinates"": [ -0.737159066, 52.67547904 ] } },"
Lidl,Dungannon,Dungannon West,Tyrone,BT70 1ES,-6.772913669,54.50251239,"{ ""tooltip"": ""Lidl<br/>Dungannon<br/>Tyrone<br/>BT70 1ES"", ""geometry"": { ""coordinates"": [ -6.772913669, 54.50251239 ] } },"
Lidl,Nelson,Central Nelson,Lancashire,BB9 7AA,-2.217438922,53.83438552,"{ ""tooltip"": ""Lidl<br/>Nelson<br/>Lancashire<br/>BB9 7AA"", ""geometry"": { ""coordinates"": [ -2.217438922, 53.83438552 ] } },"
Lidl,Burnley,Browhead,Lancashire,BB10 1EH,-2.233746113,53.80321303,"{ ""tooltip"": ""Lidl<br/>Burnley<br/>Lancashire<br/>BB10 1EH"", ""geometry"": { ""coordinates"": [ -2.233746113, 53.80321303 ] } },"
Aldi,Burnley,Brunshaw,Lancashire,BB10 4AA,-2.233195179,53.7858163,"{ ""tooltip"": ""Aldi<br/>Burnley<br/>Lancashire<br/>BB10 4AA"", ""geometry"": { ""coordinates"": [ -2.233195179, 53.7858163 ] } },"
Aldi,Chorley,Astley Village,Lancashire,PR6 0HU,-2.627681802,53.6616862,"{ ""tooltip"": ""Aldi<br/>Chorley<br/>Lancashire<br/>PR6 0HU"", ""geometry"": { ""coordinates"": [ -2.627681802, 53.6616862 ] } },"
Lidl,Morecambe,Westgate,Lancashire,LA3 3PL,-2.853198953,54.06049327,"{ ""tooltip"": ""Lidl<br/>Morecambe<br/>Lancashire<br/>LA3 3PL"", ""geometry"": { ""coordinates"": [ -2.853198953, 54.06049327 ] } },"
Aldi,Ormskirk,Ormskirk,Lancashire,L39 3RN,-2.887465949,53.5673214,"{ ""tooltip"": ""Aldi<br/>Ormskirk<br/>Lancashire<br/>L39 3RN"", ""geometry"": { ""coordinates"": [ -2.887465949, 53.5673214 ] } },"
Aldi,Burnley,Central Burnley,Lancashire,BB11 1BS,-2.246197523,53.79246929,"{ ""tooltip"": ""Aldi<br/>Burnley<br/>Lancashire<br/>BB11 1BS"", ""geometry"": { ""coordinates"": [ -2.246197523, 53.79246929 ] } },"
Aldi,Blackburn,Shadsworth,Lancashire,BB1 3HT,-2.446100851,53.75884169,"{ ""tooltip"": ""Aldi<br/>Blackburn<br/>Lancashire<br/>BB1 3HT"", ""geometry"": { ""coordinates"": [ -2.446100851, 53.75884169 ] } },"
Lidl,Street,Street,Somerset,BA16 0HW,-2.756318457,51.12600106,"{ ""tooltip"": ""Lidl<br/>Street<br/>Somerset<br/>BA16 0HW"", ""geometry"": { ""coordinates"": [ -2.756318457, 51.12600106 ] } },"
Lidl,Lisnaskea,,Fermanagh,BT92 0JB,-7.451808993,54.25920598,"{ ""tooltip"": ""Lidl<br/>Lisnaskea<br/>Fermanagh<br/>BT92 0JB"", ""geometry"": { ""coordinates"": [ -7.451808993, 54.25920598 ] } },"
Aldi,Great Harwood,,Lancashire,BB6 7UA,-2.39697687,53.78576394,"{ ""tooltip"": ""Aldi<br/>Great Harwood<br/>Lancashire<br/>BB6 7UA"", ""geometry"": { ""coordinates"": [ -2.39697687, 53.78576394 ] } },"
Aldi,Blackburn,Wensley Fold,Lancashire,BB2 1EH,-2.491921959,53.74840242,"{ ""tooltip"": ""Aldi<br/>Blackburn<br/>Lancashire<br/>BB2 1EH"", ""geometry"": { ""coordinates"": [ -2.491921959, 53.74840242 ] } },"
Aldi,Blackburn,Waterloo,Lancashire,BB2 4HY,-2.49195053,53.72852952,"{ ""tooltip"": ""Aldi<br/>Blackburn<br/>Lancashire<br/>BB2 4HY"", ""geometry"": { ""coordinates"": [ -2.49195053, 53.72852952 ] } },"
Aldi,Accrington,Milnshaw,Lancashire,BB5 1DA,-2.367630146,53.75610424,"{ ""tooltip"": ""Aldi<br/>Accrington<br/>Lancashire<br/>BB5 1DA"", ""geometry"": { ""coordinates"": [ -2.367630146, 53.75610424 ] } },"
Lidl,Accrington,Milnshaw,Lancashire,BB5 4ES,-2.38106414,53.75560521,"{ ""tooltip"": ""Lidl<br/>Accrington<br/>Lancashire<br/>BB5 4ES"", ""geometry"": { ""coordinates"": [ -2.38106414, 53.75560521 ] } },"
Lidl,Darwen,Darwen,Lancashire,BB3 1QA,-2.471488473,53.69875535,"{ ""tooltip"": ""Lidl<br/>Darwen<br/>Lancashire<br/>BB3 1QA"", ""geometry"": { ""coordinates"": [ -2.471488473, 53.69875535 ] } },"
Aldi,Clitheroe,,Lancashire,BB7 1HT,-2.395327238,53.86317627,"{ ""tooltip"": ""Aldi<br/>Clitheroe<br/>Lancashire<br/>BB7 1HT"", ""geometry"": { ""coordinates"": [ -2.395327238, 53.86317627 ] } },"
Lidl,Clitheroe,,Lancashire,BB7 1LZ,-2.387709717,53.87061404,"{ ""tooltip"": ""Lidl<br/>Clitheroe<br/>Lancashire<br/>BB7 1LZ"", ""geometry"": { ""coordinates"": [ -2.387709717, 53.87061404 ] } },"
Lidl,Blackburn,Shadsworth,Lancashire,BB1 1AB,-2.460138763,53.74909454,"{ ""tooltip"": ""Lidl<br/>Blackburn<br/>Lancashire<br/>BB1 1AB"", ""geometry"": { ""coordinates"": [ -2.460138763, 53.74909454 ] } },"
Lidl,Blackburn,Central Blackburn,Lancashire,BB2 1NU,-2.492543295,53.74440375,"{ ""tooltip"": ""Lidl<br/>Blackburn<br/>Lancashire<br/>BB2 1NU"", ""geometry"": { ""coordinates"": [ -2.492543295, 53.74440375 ] } },"
Aldi,Burscough Bridge,,Lancashire,L40 8AD,-2.864468743,53.58810715,"{ ""tooltip"": ""Aldi<br/>Burscough Bridge<br/>Lancashire<br/>L40 8AD"", ""geometry"": { ""coordinates"": [ -2.864468743, 53.58810715 ] } },"
Lidl,Ormskirk,Ormskirk,Lancashire,L39 2ZA,-2.879972507,53.57243572,"{ ""tooltip"": ""Lidl<br/>Ormskirk<br/>Lancashire<br/>L39 2ZA"", ""geometry"": { ""coordinates"": [ -2.879972507, 53.57243572 ] } },"
Aldi,Skelmersdale,Ashurst,Lancashire,WN8 6LJ,-2.774067253,53.54984544,"{ ""tooltip"": ""Aldi<br/>Skelmersdale<br/>Lancashire<br/>WN8 6LJ"", ""geometry"": { ""coordinates"": [ -2.774067253, 53.54984544 ] } },"
Lidl,Preston,Preston City Centre,Lancashire,PR1 8UY,-2.719596027,53.76173046,"{ ""tooltip"": ""Lidl<br/>Preston<br/>Lancashire<br/>PR1 8UY"", ""geometry"": { ""coordinates"": [ -2.719596027, 53.76173046 ] } },"
Aldi,Leyland,Farington,Lancashire,PR25 2LR,-2.697924243,53.69133547,"{ ""tooltip"": ""Aldi<br/>Leyland<br/>Lancashire<br/>PR25 2LR"", ""geometry"": { ""coordinates"": [ -2.697924243, 53.69133547 ] } },"
Lidl,Preston,Fishwick,Lancashire,PR1 4DT,-2.683302515,53.76097883,"{ ""tooltip"": ""Lidl<br/>Preston<br/>Lancashire<br/>PR1 4DT"", ""geometry"": { ""coordinates"": [ -2.683302515, 53.76097883 ] } },"
Lidl,Clayton Green,Clayton Green,Lancashire,PR6 7EB,-2.63880149,53.7067237,"{ ""tooltip"": ""Lidl<br/>Clayton Green<br/>Lancashire<br/>PR6 7EB"", ""geometry"": { ""coordinates"": [ -2.63880149, 53.7067237 ] } },"
Aldi,Preston,Preston City Centre,Lancashire,PR1 2UZ,-2.706420282,53.75913387,"{ ""tooltip"": ""Aldi<br/>Preston<br/>Lancashire<br/>PR1 2UZ"", ""geometry"": { ""coordinates"": [ -2.706420282, 53.75913387 ] } },"
Lidl,Preston,Fulwood,Lancashire,PR2 3LT,-2.723579077,53.7991032,"{ ""tooltip"": ""Lidl<br/>Preston<br/>Lancashire<br/>PR2 3LT"", ""geometry"": { ""coordinates"": [ -2.723579077, 53.7991032 ] } },"
Aldi,Preston,Longsands,Lancashire,PR1 6QY,-2.68071836,53.77325963,"{ ""tooltip"": ""Aldi<br/>Preston<br/>Lancashire<br/>PR1 6QY"", ""geometry"": { ""coordinates"": [ -2.68071836, 53.77325963 ] } },"
Aldi,Preston,Preston City Centre,Lancashire,PR1 4HZ,-2.689276981,53.76050824,"{ ""tooltip"": ""Aldi<br/>Preston<br/>Lancashire<br/>PR1 4HZ"", ""geometry"": { ""coordinates"": [ -2.689276981, 53.76050824 ] } },"
Aldi,Buckshaw Village,,Lancashire,PR7 7LJ,-2.655383885,53.6758236,"{ ""tooltip"": ""Aldi<br/>Buckshaw Village<br/>Lancashire<br/>PR7 7LJ"", ""geometry"": { ""coordinates"": [ -2.655383885, 53.6758236 ] } },"
Aldi,Bamber Bridge,Bamber Bridge,Lancashire,PR5 6BJ,-2.670683004,53.72285619,"{ ""tooltip"": ""Aldi<br/>Bamber Bridge<br/>Lancashire<br/>PR5 6BJ"", ""geometry"": { ""coordinates"": [ -2.670683004, 53.72285619 ] } },"
Lidl,Leyland,Farington,Lancashire,PR25 3LZ,-2.691436728,53.69760227,"{ ""tooltip"": ""Lidl<br/>Leyland<br/>Lancashire<br/>PR25 3LZ"", ""geometry"": { ""coordinates"": [ -2.691436728, 53.69760227 ] } },"
Aldi,Preston,Fulwood,Lancashire,PR2 9BQ,-2.694837551,53.79763724,"{ ""tooltip"": ""Aldi<br/>Preston<br/>Lancashire<br/>PR2 9BQ"", ""geometry"": { ""coordinates"": [ -2.694837551, 53.79763724 ] } },"
Aldi,Garstang,,Lancashire,PR3 1HB,-2.777228831,53.90050754,"{ ""tooltip"": ""Aldi<br/>Garstang<br/>Lancashire<br/>PR3 1HB"", ""geometry"": { ""coordinates"": [ -2.777228831, 53.90050754 ] } },"
Aldi,"Longridge, Lancashire",,Lancashire,PR3 2DD,-2.611049352,53.82956298,"{ ""tooltip"": ""Aldi<br/>Longridge, Lancashire<br/>Lancashire<br/>PR3 2DD"", ""geometry"": { ""coordinates"": [ -2.611049352, 53.82956298 ] } },"
Lidl,Cleveleys,,Lancashire,FY5 1LY,-3.043747273,53.87259517,"{ ""tooltip"": ""Lidl<br/>Cleveleys<br/>Lancashire<br/>FY5 1LY"", ""geometry"": { ""coordinates"": [ -3.043747273, 53.87259517 ] } },"
Aldi,Lytham,St Annes,Lancashire,FY8 2NA,-3.033363185,53.75139698,"{ ""tooltip"": ""Aldi<br/>Lytham<br/>Lancashire<br/>FY8 2NA"", ""geometry"": { ""coordinates"": [ -3.033363185, 53.75139698 ] } },"
Aldi,Fleetwood,Freeport,Lancashire,FY7 7DA,-3.02870293,53.91857397,"{ ""tooltip"": ""Aldi<br/>Fleetwood<br/>Lancashire<br/>FY7 7DA"", ""geometry"": { ""coordinates"": [ -3.02870293, 53.91857397 ] } },"
Lidl,Blackpool,Central Blackpool,Lancashire,FY3 8BL,-3.038378019,53.82341421,"{ ""tooltip"": ""Lidl<br/>Blackpool<br/>Lancashire<br/>FY3 8BL"", ""geometry"": { ""coordinates"": [ -3.038378019, 53.82341421 ] } },"
Lidl,Blackpool,Marton,Lancashire,FY1 6JW,-3.041879498,53.80485564,"{ ""tooltip"": ""Lidl<br/>Blackpool<br/>Lancashire<br/>FY1 6JW"", ""geometry"": { ""coordinates"": [ -3.041879498, 53.80485564 ] } },"
Aldi,Blackpool,Marton,Lancashire,FY4 4DP,-3.027417696,53.8035742,"{ ""tooltip"": ""Aldi<br/>Blackpool<br/>Lancashire<br/>FY4 4DP"", ""geometry"": { ""coordinates"": [ -3.027417696, 53.8035742 ] } },"
Aldi,Blackpool,Marton,Lancashire,FY4 3AA,-3.047068942,53.79877365,"{ ""tooltip"": ""Aldi<br/>Blackpool<br/>Lancashire<br/>FY4 3AA"", ""geometry"": { ""coordinates"": [ -3.047068942, 53.79877365 ] } },"
Aldi,Cleveleys,,Lancashire,FY5 1AB,-3.042073246,53.87622562,"{ ""tooltip"": ""Aldi<br/>Cleveleys<br/>Lancashire<br/>FY5 1AB"", ""geometry"": { ""coordinates"": [ -3.042073246, 53.87622562 ] } },"
Lidl,Poulton,Poulton-le-Fylde,Lancashire,FY6 8JW,-2.975676312,53.84451124,"{ ""tooltip"": ""Lidl<br/>Poulton<br/>Lancashire<br/>FY6 8JW"", ""geometry"": { ""coordinates"": [ -2.975676312, 53.84451124 ] } },"
Lidl,Lytham,Saltcotes,Lancashire,FY8 5AT,-2.940310697,53.7433651,"{ ""tooltip"": ""Lidl<br/>Lytham<br/>Lancashire<br/>FY8 5AT"", ""geometry"": { ""coordinates"": [ -2.940310697, 53.7433651 ] } },"
Aldi,Poulton,Poulton-le-Fylde,Lancashire,FY6 7BX,-2.991917108,53.84812149,"{ ""tooltip"": ""Aldi<br/>Poulton<br/>Lancashire<br/>FY6 7BX"", ""geometry"": { ""coordinates"": [ -2.991917108, 53.84812149 ] } },"
Aldi,Blackpool,South Shore,Lancashire,FY4 2RP,-3.032656328,53.78033906,"{ ""tooltip"": ""Aldi<br/>Blackpool<br/>Lancashire<br/>FY4 2RP"", ""geometry"": { ""coordinates"": [ -3.032656328, 53.78033906 ] } },"
Aldi,Kirkham,Wesham,Lancashire,PR4 3JZ,-2.889269831,53.7965696,"{ ""tooltip"": ""Aldi<br/>Kirkham<br/>Lancashire<br/>PR4 3JZ"", ""geometry"": { ""coordinates"": [ -2.889269831, 53.7965696 ] } },"
Aldi,Kilmarnock,Bonnyton,Ayrshire,KA1 4BU,-4.498664575,55.60321927,"{ ""tooltip"": ""Aldi<br/>Kilmarnock<br/>Ayrshire<br/>KA1 4BU"", ""geometry"": { ""coordinates"": [ -4.498664575, 55.60321927 ] } },"
Lidl,Kilmarnock,Bonnyton,Ayrshire,KA1 4AG,-4.496199122,55.6015989,"{ ""tooltip"": ""Lidl<br/>Kilmarnock<br/>Ayrshire<br/>KA1 4AG"", ""geometry"": { ""coordinates"": [ -4.496199122, 55.6015989 ] } },"
Aldi,"Stewarton, Ayrshire",,Ayrshire,KA3 5AG,-4.516820674,55.68130957,"{ ""tooltip"": ""Aldi<br/>Stewarton, Ayrshire<br/>Ayrshire<br/>KA3 5AG"", ""geometry"": { ""coordinates"": [ -4.516820674, 55.68130957 ] } },"
Aldi,Ayr,Wallacetown,Ayrshire,KA8 8BU,-4.630828111,55.4668393,"{ ""tooltip"": ""Aldi<br/>Ayr<br/>Ayrshire<br/>KA8 8BU"", ""geometry"": { ""coordinates"": [ -4.630828111, 55.4668393 ] } },"
Aldi,Irvine,Irvine,Ayrshire,KA12 0AF,-4.665251409,55.61634247,"{ ""tooltip"": ""Aldi<br/>Irvine<br/>Ayrshire<br/>KA12 0AF"", ""geometry"": { ""coordinates"": [ -4.665251409, 55.61634247 ] } },"
Lidl,Ayr,Wallacetown,Ayrshire,KA8 8HD,-4.628603526,55.46813738,"{ ""tooltip"": ""Lidl<br/>Ayr<br/>Ayrshire<br/>KA8 8HD"", ""geometry"": { ""coordinates"": [ -4.628603526, 55.46813738 ] } },"
Aldi,"Prestwick, Ayrshire",,Ayrshire,KA9 1TW,-4.616913099,55.48576319,"{ ""tooltip"": ""Aldi<br/>Prestwick, Ayrshire<br/>Ayrshire<br/>KA9 1TW"", ""geometry"": { ""coordinates"": [ -4.616913099, 55.48576319 ] } },"
Aldi,Saltcoats,Saltcoats,Ayrshire,KA21 5EP,-4.786146325,55.63137808,"{ ""tooltip"": ""Aldi<br/>Saltcoats<br/>Ayrshire<br/>KA21 5EP"", ""geometry"": { ""coordinates"": [ -4.786146325, 55.63137808 ] } },"
Lidl,Stevenston,Stevenston,Ayrshire,KA20 3JL,-4.761791318,55.63872333,"{ ""tooltip"": ""Lidl<br/>Stevenston<br/>Ayrshire<br/>KA20 3JL"", ""geometry"": { ""coordinates"": [ -4.761791318, 55.63872333 ] } },"
Lidl,Dalry,,Ayrshire,KA24 4LA,-4.724954269,55.70429604,"{ ""tooltip"": ""Lidl<br/>Dalry<br/>Ayrshire<br/>KA24 4LA"", ""geometry"": { ""coordinates"": [ -4.724954269, 55.70429604 ] } },"
Lidl,Inverurie,,Aberdeenshire,AB51 0GZ,-2.371217963,57.28710172,"{ ""tooltip"": ""Lidl<br/>Inverurie<br/>Aberdeenshire<br/>AB51 0GZ"", ""geometry"": { ""coordinates"": [ -2.371217963, 57.28710172 ] } },"
Aldi,Aberdeen,Rosemount,Aberdeenshire,AB16 5UT,-2.141539394,57.15951358,"{ ""tooltip"": ""Aldi<br/>Aberdeen<br/>Aberdeenshire<br/>AB16 5UT"", ""geometry"": { ""coordinates"": [ -2.141539394, 57.15951358 ] } },"
Lidl,Aberdeen,Torry,Aberdeenshire,AB12 3AX,-2.090375975,57.12780053,"{ ""tooltip"": ""Lidl<br/>Aberdeen<br/>Aberdeenshire<br/>AB12 3AX"", ""geometry"": { ""coordinates"": [ -2.090375975, 57.12780053 ] } },"
Aldi,Westhill,Westhill,Aberdeenshire,AB32 6FY,-2.278341,57.15480973,"{ ""tooltip"": ""Aldi<br/>Westhill<br/>Aberdeenshire<br/>AB32 6FY"", ""geometry"": { ""coordinates"": [ -2.278341, 57.15480973 ] } },"
Lidl,Aberdeen,Old Aberdeen,Aberdeenshire,AB24 1XZ,-2.093598429,57.17345544,"{ ""tooltip"": ""Lidl<br/>Aberdeen<br/>Aberdeenshire<br/>AB24 1XZ"", ""geometry"": { ""coordinates"": [ -2.093598429, 57.17345544 ] } },"
Aldi,Aberdeen,Central Aberdeen,Aberdeenshire,AB11 5EJ,-2.081728213,57.14862551,"{ ""tooltip"": ""Aldi<br/>Aberdeen<br/>Aberdeenshire<br/>AB11 5EJ"", ""geometry"": { ""coordinates"": [ -2.081728213, 57.14862551 ] } },"
Aldi,Ellon,,Aberdeenshire,AB41 9LJ,-2.075008483,57.36331395,"{ ""tooltip"": ""Aldi<br/>Ellon<br/>Aberdeenshire<br/>AB41 9LJ"", ""geometry"": { ""coordinates"": [ -2.075008483, 57.36331395 ] } },"
Lidl,Aberdeen,Mastrick,Aberdeenshire,AB15 6HY,-2.161816593,57.15178924,"{ ""tooltip"": ""Lidl<br/>Aberdeen<br/>Aberdeenshire<br/>AB15 6HY"", ""geometry"": { ""coordinates"": [ -2.161816593, 57.15178924 ] } },"
Aldi,Inverurie,,Aberdeenshire,AB51 4FY,-2.380155995,57.28877138,"{ ""tooltip"": ""Aldi<br/>Inverurie<br/>Aberdeenshire<br/>AB51 4FY"", ""geometry"": { ""coordinates"": [ -2.380155995, 57.28877138 ] } },"
Lidl,Aberdeen,Central Aberdeen,Aberdeenshire,AB25 3TB,-2.104660074,57.15434049,"{ ""tooltip"": ""Lidl<br/>Aberdeen<br/>Aberdeenshire<br/>AB25 3TB"", ""geometry"": { ""coordinates"": [ -2.104660074, 57.15434049 ] } },"
Lidl,Peterhead,,Aberdeenshire,AB42 1RG,-1.805615109,57.5112553,"{ ""tooltip"": ""Lidl<br/>Peterhead<br/>Aberdeenshire<br/>AB42 1RG"", ""geometry"": { ""coordinates"": [ -1.805615109, 57.5112553 ] } },"
Aldi,Peterhead,,Aberdeenshire,AB42 1RY,-1.789546599,57.50512673,"{ ""tooltip"": ""Aldi<br/>Peterhead<br/>Aberdeenshire<br/>AB42 1RY"", ""geometry"": { ""coordinates"": [ -1.789546599, 57.50512673 ] } },"
Lidl,Fraserburgh,,Aberdeenshire,AB43 9TA,-2.003701585,57.68070575,"{ ""tooltip"": ""Lidl<br/>Fraserburgh<br/>Aberdeenshire<br/>AB43 9TA"", ""geometry"": { ""coordinates"": [ -2.003701585, 57.68070575 ] } },"
Lidl,Holyhead,,Gwynedd,LL65 2PL,-4.628944935,53.30677362,"{ ""tooltip"": ""Lidl<br/>Holyhead<br/>Gwynedd<br/>LL65 2PL"", ""geometry"": { ""coordinates"": [ -4.628944935, 53.30677362 ] } },"
Lidl,"Bangor, Gwynedd",,Gwynedd,LL57 1DQ,-4.132213268,53.22246828,"{ ""tooltip"": ""Lidl<br/>Bangor, Gwynedd<br/>Gwynedd<br/>LL57 1DQ"", ""geometry"": { ""coordinates"": [ -4.132213268, 53.22246828 ] } },"
Aldi,Porthmadog,,Gwynedd,LL49 9NY,-4.136957373,52.92854351,"{ ""tooltip"": ""Aldi<br/>Porthmadog<br/>Gwynedd<br/>LL49 9NY"", ""geometry"": { ""coordinates"": [ -4.136957373, 52.92854351 ] } },"
Aldi,Holyhead,,Gwynedd,LL65 2UQ,-4.616557441,53.30130153,"{ ""tooltip"": ""Aldi<br/>Holyhead<br/>Gwynedd<br/>LL65 2UQ"", ""geometry"": { ""coordinates"": [ -4.616557441, 53.30130153 ] } },"
Lidl,Porthmadog,,Gwynedd,LL49 9NY,-4.13762759,52.92921488,"{ ""tooltip"": ""Lidl<br/>Porthmadog<br/>Gwynedd<br/>LL49 9NY"", ""geometry"": { ""coordinates"": [ -4.13762759, 52.92921488 ] } },"
Lidl,Pwllheli,,Gwynedd,LL53 5NU,-4.420537769,52.88723813,"{ ""tooltip"": ""Lidl<br/>Pwllheli<br/>Gwynedd<br/>LL53 5NU"", ""geometry"": { ""coordinates"": [ -4.420537769, 52.88723813 ] } },"
Aldi,Llangefni,,Gwynedd,LL77 7JA,-4.308654656,53.25404323,"{ ""tooltip"": ""Aldi<br/>Llangefni<br/>Gwynedd<br/>LL77 7JA"", ""geometry"": { ""coordinates"": [ -4.308654656, 53.25404323 ] } },"
Lidl,Llangefni,,Gwynedd,LL77 7JH,-4.307572173,53.25368289,"{ ""tooltip"": ""Lidl<br/>Llangefni<br/>Gwynedd<br/>LL77 7JH"", ""geometry"": { ""coordinates"": [ -4.307572173, 53.25368289 ] } },"
Aldi,"Bangor, Gwynedd",,Gwynedd,LL57 2RW,-4.125555667,53.22971309,"{ ""tooltip"": ""Aldi<br/>Bangor, Gwynedd<br/>Gwynedd<br/>LL57 2RW"", ""geometry"": { ""coordinates"": [ -4.125555667, 53.22971309 ] } },"
Aldi,Welshpool,,Powys,SY21 7BL,-3.142760835,52.65972016,"{ ""tooltip"": ""Aldi<br/>Welshpool<br/>Powys<br/>SY21 7BL"", ""geometry"": { ""coordinates"": [ -3.142760835, 52.65972016 ] } },"
Aldi,Llandrindod Wells,,Powys,LD1 5BB,-3.37799741,52.24267593,"{ ""tooltip"": ""Aldi<br/>Llandrindod Wells<br/>Powys<br/>LD1 5BB"", ""geometry"": { ""coordinates"": [ -3.37799741, 52.24267593 ] } },"
Lidl,"Newtown, Powys",,Powys,SY16 1ET,-3.319252766,52.510057,"{ ""tooltip"": ""Lidl<br/>Newtown, Powys<br/>Powys<br/>SY16 1ET"", ""geometry"": { ""coordinates"": [ -3.319252766, 52.510057 ] } },"
Aldi,"Staines, Powys",,Powys,LD3 7ED,-3.388201197,51.94479404,"{ ""tooltip"": ""Aldi<br/>Staines, Powys<br/>Powys<br/>LD3 7ED"", ""geometry"": { ""coordinates"": [ -3.388201197, 51.94479404 ] } },"
Lidl,Oban,,Argyll & Bute,PA34 4HE,-5.469925674,56.40941375,"{ ""tooltip"": ""Lidl<br/>Oban<br/>Argyll & Bute<br/>PA34 4HE"", ""geometry"": { ""coordinates"": [ -5.469925674, 56.40941375 ] } },"
Aldi,Oban,,Argyll & Bute,PA34 4PH,-5.470850959,56.40736079,"{ ""tooltip"": ""Aldi<br/>Oban<br/>Argyll & Bute<br/>PA34 4PH"", ""geometry"": { ""coordinates"": [ -5.470850959, 56.40736079 ] } },"
Lidl,Stranraer,,Dumfries & Galloway,DG9 7BT,-5.024004698,54.89697582,"{ ""tooltip"": ""Lidl<br/>Stranraer<br/>Dumfries & Galloway<br/>DG9 7BT"", ""geometry"": { ""coordinates"": [ -5.024004698, 54.89697582 ] } },"
Aldi,Newton Stewart,Newton Stewart,Dumfries & Galloway,DG8 6EH,-4.482134647,54.95549572,"{ ""tooltip"": ""Aldi<br/>Newton Stewart<br/>Dumfries & Galloway<br/>DG8 6EH"", ""geometry"": { ""coordinates"": [ -4.482134647, 54.95549572 ] } },"
Aldi,Annan,,Dumfries & Galloway,DG12 5AL,-3.259106996,54.98808848,"{ ""tooltip"": ""Aldi<br/>Annan<br/>Dumfries & Galloway<br/>DG12 5AL"", ""geometry"": { ""coordinates"": [ -3.259106996, 54.98808848 ] } },"
Aldi,Dumfries,Maxwelltown,Dumfries & Galloway,DG2 0NW,-3.626235851,55.07750094,"{ ""tooltip"": ""Aldi<br/>Dumfries<br/>Dumfries & Galloway<br/>DG2 0NW"", ""geometry"": { ""coordinates"": [ -3.626235851, 55.07750094 ] } },"
Aldi,Dumfries,Calside,Dumfries & Galloway,DG1 3HB,-3.584705039,55.06991113,"{ ""tooltip"": ""Aldi<br/>Dumfries<br/>Dumfries & Galloway<br/>DG1 3HB"", ""geometry"": { ""coordinates"": [ -3.584705039, 55.06991113 ] } },"
Lidl,Dumfries,Calside,Dumfries & Galloway,DG1 2DZ,-3.603276699,55.06646228,"{ ""tooltip"": ""Lidl<br/>Dumfries<br/>Dumfries & Galloway<br/>DG1 2DZ"", ""geometry"": { ""coordinates"": [ -3.603276699, 55.06646228 ] } },"
Aldi,Inverness,Inshes,Highland,IV2 3TW,-4.191686925,57.46817845,"{ ""tooltip"": ""Aldi<br/>Inverness<br/>Highland<br/>IV2 3TW"", ""geometry"": { ""coordinates"": [ -4.191686925, 57.46817845 ] } },"
Aldi,Aviemore,,Highland,PH22 1AF,-3.8306009,57.19276978,"{ ""tooltip"": ""Aldi<br/>Aviemore<br/>Highland<br/>PH22 1AF"", ""geometry"": { ""coordinates"": [ -3.8306009, 57.19276978 ] } },"
Lidl,Dingwall,,Highland,IV15 9JZ,-4.426185119,57.59651705,"{ ""tooltip"": ""Lidl<br/>Dingwall<br/>Highland<br/>IV15 9JZ"", ""geometry"": { ""coordinates"": [ -4.426185119, 57.59651705 ] } },"
Lidl,Tain,,Highland,IV19 1PY,-4.066882606,57.81721317,"{ ""tooltip"": ""Lidl<br/>Tain<br/>Highland<br/>IV19 1PY"", ""geometry"": { ""coordinates"": [ -4.066882606, 57.81721317 ] } },"
Lidl,Inverness,Dalneigh,Highland,IV3 5LF,-4.243156013,57.4807864,"{ ""tooltip"": ""Lidl<br/>Inverness<br/>Highland<br/>IV3 5LF"", ""geometry"": { ""coordinates"": [ -4.243156013, 57.4807864 ] } },"
Aldi,Inverness,Merkinch,Highland,IV3 5JP,-4.237786541,57.48080499,"{ ""tooltip"": ""Aldi<br/>Inverness<br/>Highland<br/>IV3 5JP"", ""geometry"": { ""coordinates"": [ -4.237786541, 57.48080499 ] } },"
Lidl,Alness,,Highland,IV17 0UX,-4.241678243,57.69230621,"{ ""tooltip"": ""Lidl<br/>Alness<br/>Highland<br/>IV17 0UX"", ""geometry"": { ""coordinates"": [ -4.241678243, 57.69230621 ] } },"
Lidl,Thurso,Thurso,Highland,KW14 7LS,-3.531689213,58.59718218,"{ ""tooltip"": ""Lidl<br/>Thurso<br/>Highland<br/>KW14 7LS"", ""geometry"": { ""coordinates"": [ -3.531689213, 58.59718218 ] } },"
Aldi,Fort William,,Highland,PH33 6PP,-5.083545565,56.82781017,"{ ""tooltip"": ""Aldi<br/>Fort William<br/>Highland<br/>PH33 6PP"", ""geometry"": { ""coordinates"": [ -5.083545565, 56.82781017 ] } },"
Lidl,Fort William,,Highland,PH33 6XZ,-5.101129017,56.82196016,"{ ""tooltip"": ""Lidl<br/>Fort William<br/>Highland<br/>PH33 6XZ"", ""geometry"": { ""coordinates"": [ -5.101129017, 56.82196016 ] } },"
Lidl,Uttoxeter,,Staffordshire,ST14 8AZ,-1.86110878,52.89977877,"{ ""tooltip"": ""Lidl<br/>Uttoxeter<br/>Staffordshire<br/>ST14 8AZ"", ""geometry"": { ""coordinates"": [ -1.86110878, 52.89977877 ] } },"
Aldi,Kidsgrove,White Hill,Staffordshire,ST7 4EH,-2.235274817,53.08515356,"{ ""tooltip"": ""Aldi<br/>Kidsgrove<br/>Staffordshire<br/>ST7 4EH"", ""geometry"": { ""coordinates"": [ -2.235274817, 53.08515356 ] } },"
Aldi,Stoke-on-Trent,Burslem,Staffordshire,ST1 6EJ,-2.161528245,53.04837633,"{ ""tooltip"": ""Aldi<br/>Stoke-on-Trent<br/>Staffordshire<br/>ST1 6EJ"", ""geometry"": { ""coordinates"": [ -2.161528245, 53.04837633 ] } },"
Lidl,Stoke-on-Trent,Tunstall,Staffordshire,ST6 5EG,-2.211771846,53.06369797,"{ ""tooltip"": ""Lidl<br/>Stoke-on-Trent<br/>Staffordshire<br/>ST6 5EG"", ""geometry"": { ""coordinates"": [ -2.211771846, 53.06369797 ] } },"
Aldi,Stoke-on-Trent,Tunstall,Staffordshire,ST6 4JU,-2.209295931,53.05444368,"{ ""tooltip"": ""Aldi<br/>Stoke-on-Trent<br/>Staffordshire<br/>ST6 4JU"", ""geometry"": { ""coordinates"": [ -2.209295931, 53.05444368 ] } },"
Lidl,Stoke-on-Trent,Longton,Staffordshire,ST3 4DY,-2.135134051,52.98419217,"{ ""tooltip"": ""Lidl<br/>Stoke-on-Trent<br/>Staffordshire<br/>ST3 4DY"", ""geometry"": { ""coordinates"": [ -2.135134051, 52.98419217 ] } },"
Aldi,Newcastle Under Lyme,Stoke-upon-Trent,Staffordshire,ST4 6NY,-2.207277641,52.99445556,"{ ""tooltip"": ""Aldi<br/>Newcastle Under Lyme<br/>Staffordshire<br/>ST4 6NY"", ""geometry"": { ""coordinates"": [ -2.207277641, 52.99445556 ] } },"
Aldi,Stoke-on-Trent,Meir,Staffordshire,ST3 7TU,-2.090043867,52.97042064,"{ ""tooltip"": ""Aldi<br/>Stoke-on-Trent<br/>Staffordshire<br/>ST3 7TU"", ""geometry"": { ""coordinates"": [ -2.090043867, 52.97042064 ] } },"
Aldi,Stoke-on-Trent,Fenton,Staffordshire,ST4 2HX,-2.166788636,53.00817335,"{ ""tooltip"": ""Aldi<br/>Stoke-on-Trent<br/>Staffordshire<br/>ST4 2HX"", ""geometry"": { ""coordinates"": [ -2.166788636, 53.00817335 ] } },"
Lidl,Newcastle Under Lyme,Central Newcastle-under-lyme,Staffordshire,ST5 2RS,-2.231826061,53.01204381,"{ ""tooltip"": ""Lidl<br/>Newcastle Under Lyme<br/>Staffordshire<br/>ST5 2RS"", ""geometry"": { ""coordinates"": [ -2.231826061, 53.01204381 ] } },"
Lidl,Stoke-on-Trent,Ubberley,Staffordshire,ST2 0GH,-2.123384869,53.00584571,"{ ""tooltip"": ""Lidl<br/>Stoke-on-Trent<br/>Staffordshire<br/>ST2 0GH"", ""geometry"": { ""coordinates"": [ -2.123384869, 53.00584571 ] } },"
Aldi,Stone,Walton,Staffordshire,ST15 0UN,-2.145082022,52.89195488,"{ ""tooltip"": ""Aldi<br/>Stone<br/>Staffordshire<br/>ST15 0UN"", ""geometry"": { ""coordinates"": [ -2.145082022, 52.89195488 ] } },"
Aldi,Stoke-on-Trent,Longton,Staffordshire,ST4 8HP,-2.169734228,52.96855452,"{ ""tooltip"": ""Aldi<br/>Stoke-on-Trent<br/>Staffordshire<br/>ST4 8HP"", ""geometry"": { ""coordinates"": [ -2.169734228, 52.96855452 ] } },"
Aldi,Newcastle Under Lyme,Central Newcastle-under-lyme,Staffordshire,ST5 3HY,-2.228711675,53.00932586,"{ ""tooltip"": ""Aldi<br/>Newcastle Under Lyme<br/>Staffordshire<br/>ST5 3HY"", ""geometry"": { ""coordinates"": [ -2.228711675, 53.00932586 ] } },"
Lidl,Newcastle Under Lyme,Stoke-upon-Trent,Staffordshire,ST4 7SG,-2.187009974,53.00054109,"{ ""tooltip"": ""Lidl<br/>Newcastle Under Lyme<br/>Staffordshire<br/>ST4 7SG"", ""geometry"": { ""coordinates"": [ -2.187009974, 53.00054109 ] } },"
Aldi,Burton Upon Trent,Central Burton,Staffordshire,DE14 1NG,-1.630001179,52.80628369,"{ ""tooltip"": ""Aldi<br/>Burton Upon Trent<br/>Staffordshire<br/>DE14 1NG"", ""geometry"": { ""coordinates"": [ -1.630001179, 52.80628369 ] } },"
Lidl,Burton Upon Trent,Shobnall,Staffordshire,DE14 2LJ,-1.641863011,52.80816335,"{ ""tooltip"": ""Lidl<br/>Burton Upon Trent<br/>Staffordshire<br/>DE14 2LJ"", ""geometry"": { ""coordinates"": [ -1.641863011, 52.80816335 ] } },"
Aldi,Burntwood,Boney Hay,Staffordshire,WS7 2BX,-1.932922809,52.68064368,"{ ""tooltip"": ""Aldi<br/>Burntwood<br/>Staffordshire<br/>WS7 2BX"", ""geometry"": { ""coordinates"": [ -1.932922809, 52.68064368 ] } },"
Lidl,Stafford,Sandon Road,Staffordshire,ST16 2QY,-2.122567557,52.81079732,"{ ""tooltip"": ""Lidl<br/>Stafford<br/>Staffordshire<br/>ST16 2QY"", ""geometry"": { ""coordinates"": [ -2.122567557, 52.81079732 ] } },"
Aldi,Stafford,Central Staffod,Staffordshire,ST16 3AD,-2.114165929,52.80819377,"{ ""tooltip"": ""Aldi<br/>Stafford<br/>Staffordshire<br/>ST16 3AD"", ""geometry"": { ""coordinates"": [ -2.114165929, 52.80819377 ] } },"
Aldi,Cannock,Central Cannock,Staffordshire,WS11 0HP,-2.026488912,52.68660749,"{ ""tooltip"": ""Aldi<br/>Cannock<br/>Staffordshire<br/>WS11 0HP"", ""geometry"": { ""coordinates"": [ -2.026488912, 52.68660749 ] } },"
Aldi,Cannock,Hednesford,Staffordshire,WS12 1DU,-1.99696031,52.70841148,"{ ""tooltip"": ""Aldi<br/>Cannock<br/>Staffordshire<br/>WS12 1DU"", ""geometry"": { ""coordinates"": [ -1.99696031, 52.70841148 ] } },"
Aldi,Stafford,Rising Brook,Staffordshire,ST17 4NX,-2.094862102,52.79281524,"{ ""tooltip"": ""Aldi<br/>Stafford<br/>Staffordshire<br/>ST17 4NX"", ""geometry"": { ""coordinates"": [ -2.094862102, 52.79281524 ] } },"
Aldi,Rugeley,Springfields,Staffordshire,WS15 2JL,-1.933979669,52.76352487,"{ ""tooltip"": ""Aldi<br/>Rugeley<br/>Staffordshire<br/>WS15 2JL"", ""geometry"": { ""coordinates"": [ -1.933979669, 52.76352487 ] } },"
Aldi,Leek,,Staffordshire,ST13 5JH,-2.022786753,53.10501668,"{ ""tooltip"": ""Aldi<br/>Leek<br/>Staffordshire<br/>ST13 5JH"", ""geometry"": { ""coordinates"": [ -2.022786753, 53.10501668 ] } },"
Lidl,Leek,,Staffordshire,ST13 6AH,-2.018597531,53.10800037,"{ ""tooltip"": ""Lidl<br/>Leek<br/>Staffordshire<br/>ST13 6AH"", ""geometry"": { ""coordinates"": [ -2.018597531, 53.10800037 ] } },"
Aldi,Tamworth,Amington,Staffordshire,B77 2BS,-1.669869789,52.627358,"{ ""tooltip"": ""Aldi<br/>Tamworth<br/>Staffordshire<br/>B77 2BS"", ""geometry"": { ""coordinates"": [ -1.669869789, 52.627358 ] } },"
Lidl,Tamworth,Leyfields,Staffordshire,B79 7AG,-1.688320204,52.63208364,"{ ""tooltip"": ""Lidl<br/>Tamworth<br/>Staffordshire<br/>B79 7AG"", ""geometry"": { ""coordinates"": [ -1.688320204, 52.63208364 ] } },"
Aldi,Tamworth,Leyfields,Staffordshire,B79 7HY,-1.687611365,52.63369292,"{ ""tooltip"": ""Aldi<br/>Tamworth<br/>Staffordshire<br/>B79 7HY"", ""geometry"": { ""coordinates"": [ -1.687611365, 52.63369292 ] } },"
Lidl,Lichfield,Trent Valley,Staffordshire,WS13 6RL,-1.810799566,52.69191606,"{ ""tooltip"": ""Lidl<br/>Lichfield<br/>Staffordshire<br/>WS13 6RL"", ""geometry"": { ""coordinates"": [ -1.810799566, 52.69191606 ] } },"
Aldi,Lichfield,Central Lichfield,Staffordshire,WS13 6EB,-1.81924917,52.68445332,"{ ""tooltip"": ""Aldi<br/>Lichfield<br/>Staffordshire<br/>WS13 6EB"", ""geometry"": { ""coordinates"": [ -1.81924917, 52.68445332 ] } },"
Aldi,Deal,Deal Town Centre,Kent,CT14 6AG,1.40118681,51.2236951,"{ ""tooltip"": ""Aldi<br/>Deal<br/>Kent<br/>CT14 6AG"", ""geometry"": { ""coordinates"": [ 1.40118681, 51.2236951 ] } },"
Lidl,Ramsgate,Newington,Kent,CT12 6SL,1.397256026,51.35673622,"{ ""tooltip"": ""Lidl<br/>Ramsgate<br/>Kent<br/>CT12 6SL"", ""geometry"": { ""coordinates"": [ 1.397256026, 51.35673622 ] } },"
Aldi,Margate,Cliftonville,Kent,CT9 1RP,1.387838403,51.3906293,"{ ""tooltip"": ""Aldi<br/>Margate<br/>Kent<br/>CT9 1RP"", ""geometry"": { ""coordinates"": [ 1.387838403, 51.3906293 ] } },"
Aldi,Dover,Dover Town Centre,Kent,CT16 2NL,1.301645271,51.13430785,"{ ""tooltip"": ""Aldi<br/>Dover<br/>Kent<br/>CT16 2NL"", ""geometry"": { ""coordinates"": [ 1.301645271, 51.13430785 ] } },"
Lidl,"Whitfield, Kent",,Kent,CT16 3FH,1.30461532,51.15112817,"{ ""tooltip"": ""Lidl<br/>Whitfield, Kent<br/>Kent<br/>CT16 3FH"", ""geometry"": { ""coordinates"": [ 1.30461532, 51.15112817 ] } },"
Aldi,Ramsgate,Ramsgate,Kent,CT11 7NA,1.420970354,51.33760254,"{ ""tooltip"": ""Aldi<br/>Ramsgate<br/>Kent<br/>CT11 7NA"", ""geometry"": { ""coordinates"": [ 1.420970354, 51.33760254 ] } },"
Aldi,Canterbury,Central Canterbury,Kent,CT1 2LN,1.073602829,51.27521125,"{ ""tooltip"": ""Aldi<br/>Canterbury<br/>Kent<br/>CT1 2LN"", ""geometry"": { ""coordinates"": [ 1.073602829, 51.27521125 ] } },"
Aldi,Whitstable,Seasalter,Kent,CT5 3JD,1.015730181,51.34105374,"{ ""tooltip"": ""Aldi<br/>Whitstable<br/>Kent<br/>CT5 3JD"", ""geometry"": { ""coordinates"": [ 1.015730181, 51.34105374 ] } },"
Lidl,Herne Bay,Greenhill,Kent,CT6 8NZ,1.107891973,51.36336586,"{ ""tooltip"": ""Lidl<br/>Herne Bay<br/>Kent<br/>CT6 8NZ"", ""geometry"": { ""coordinates"": [ 1.107891973, 51.36336586 ] } },"
Lidl,Canterbury,Spring Lane,Kent,CT1 1HJ,1.096515073,51.28802569,"{ ""tooltip"": ""Lidl<br/>Canterbury<br/>Kent<br/>CT1 1HJ"", ""geometry"": { ""coordinates"": [ 1.096515073, 51.28802569 ] } },"
Aldi,Herne Bay,Herne Bay,Kent,CT6 5RE,1.125977565,51.37018762,"{ ""tooltip"": ""Aldi<br/>Herne Bay<br/>Kent<br/>CT6 5RE"", ""geometry"": { ""coordinates"": [ 1.125977565, 51.37018762 ] } },"
Lidl,"Ashford, Kent",Central Ashford,Kent,TN24 8TN,0.868127107,51.15037264,"{ ""tooltip"": ""Lidl<br/>Ashford, Kent<br/>Kent<br/>TN24 8TN"", ""geometry"": { ""coordinates"": [ 0.868127107, 51.15037264 ] } },"
Lidl,Folkestone,Central Folkestone,Kent,CT20 1BP,1.180010416,51.0812782,"{ ""tooltip"": ""Lidl<br/>Folkestone<br/>Kent<br/>CT20 1BP"", ""geometry"": { ""coordinates"": [ 1.180010416, 51.0812782 ] } },"
Aldi,Hythe,Saltwood,Kent,CT21 6HJ,1.066331214,51.06832371,"{ ""tooltip"": ""Aldi<br/>Hythe<br/>Kent<br/>CT21 6HJ"", ""geometry"": { ""coordinates"": [ 1.066331214, 51.06832371 ] } },"
Aldi,"Ashford, Kent",South Ashford,Kent,TN23 7HQ,0.871085355,51.14452936,"{ ""tooltip"": ""Aldi<br/>Ashford, Kent<br/>Kent<br/>TN23 7HQ"", ""geometry"": { ""coordinates"": [ 0.871085355, 51.14452936 ] } },"
Lidl,Hawkinge,,Kent,CT18 7RH,1.160572728,51.11178342,"{ ""tooltip"": ""Lidl<br/>Hawkinge<br/>Kent<br/>CT18 7RH"", ""geometry"": { ""coordinates"": [ 1.160572728, 51.11178342 ] } },"
Aldi,Royal Tunbridge Wells,Sherwood,Kent,TN2 3EW,0.293150056,51.15932277,"{ ""tooltip"": ""Aldi<br/>Royal Tunbridge Wells<br/>Kent<br/>TN2 3EW"", ""geometry"": { ""coordinates"": [ 0.293150056, 51.15932277 ] } },"
Lidl,Tonbridge,Central Tonbridge,Kent,TN9 2RH,0.269994166,51.19096494,"{ ""tooltip"": ""Lidl<br/>Tonbridge<br/>Kent<br/>TN9 2RH"", ""geometry"": { ""coordinates"": [ 0.269994166, 51.19096494 ] } },"
Aldi,Tonbridge,Higham Wood,Kent,TN9 1PN,0.282621742,51.19681731,"{ ""tooltip"": ""Aldi<br/>Tonbridge<br/>Kent<br/>TN9 1PN"", ""geometry"": { ""coordinates"": [ 0.282621742, 51.19681731 ] } },"
Aldi,Gillingham,Darland,Kent,ME7 4JS,0.550781028,51.38587947,"{ ""tooltip"": ""Aldi<br/>Gillingham<br/>Kent<br/>ME7 4JS"", ""geometry"": { ""coordinates"": [ 0.550781028, 51.38587947 ] } },"
Aldi,Maidstone,Vinter's Park,Kent,ME14 1XL,0.526481609,51.27887951,"{ ""tooltip"": ""Aldi<br/>Maidstone<br/>Kent<br/>ME14 1XL"", ""geometry"": { ""coordinates"": [ 0.526481609, 51.27887951 ] } },"
Aldi,Maidstone,Shepway,Kent,ME17 3FU,0.568984009,51.23978917,"{ ""tooltip"": ""Aldi<br/>Maidstone<br/>Kent<br/>ME17 3FU"", ""geometry"": { ""coordinates"": [ 0.568984009, 51.23978917 ] } },"
Aldi,Aylesford,Aylesford,Kent,ME20 7PT,0.476016987,51.29170805,"{ ""tooltip"": ""Aldi<br/>Aylesford<br/>Kent<br/>ME20 7PT"", ""geometry"": { ""coordinates"": [ 0.476016987, 51.29170805 ] } },"
Lidl,Maidstone,Central Maidstone,Kent,ME15 6RG,0.510992613,51.26257203,"{ ""tooltip"": ""Lidl<br/>Maidstone<br/>Kent<br/>ME15 6RG"", ""geometry"": { ""coordinates"": [ 0.510992613, 51.26257203 ] } },"
Aldi,Gillingham,Twydall,Kent,ME8 0PU,0.578381845,51.36801266,"{ ""tooltip"": ""Aldi<br/>Gillingham<br/>Kent<br/>ME8 0PU"", ""geometry"": { ""coordinates"": [ 0.578381845, 51.36801266 ] } },"
Lidl,Maidstone,Central Maidstone,Kent,ME16 8PS,0.516801306,51.2716844,"{ ""tooltip"": ""Lidl<br/>Maidstone<br/>Kent<br/>ME16 8PS"", ""geometry"": { ""coordinates"": [ 0.516801306, 51.2716844 ] } },"
Aldi,Chatham,Walderslade,Kent,ME5 9SQ,0.507506407,51.35310946,"{ ""tooltip"": ""Aldi<br/>Chatham<br/>Kent<br/>ME5 9SQ"", ""geometry"": { ""coordinates"": [ 0.507506407, 51.35310946 ] } },"
Aldi,Strood,Frindsbury,Kent,ME2 4WR,0.496168043,51.39605854,"{ ""tooltip"": ""Aldi<br/>Strood<br/>Kent<br/>ME2 4WR"", ""geometry"": { ""coordinates"": [ 0.496168043, 51.39605854 ] } },"
Aldi,Dartford,Central Dartford,Kent,DA1 1DN,0.218867514,51.44484733,"{ ""tooltip"": ""Aldi<br/>Dartford<br/>Kent<br/>DA1 1DN"", ""geometry"": { ""coordinates"": [ 0.218867514, 51.44484733 ] } },"
Aldi,Swanley,,Kent,BR8 7BU,0.171957054,51.39649897,"{ ""tooltip"": ""Aldi<br/>Swanley<br/>Kent<br/>BR8 7BU"", ""geometry"": { ""coordinates"": [ 0.171957054, 51.39649897 ] } },"
Lidl,Dartford,Central Dartford,Kent,DA1 2AG,0.214093148,51.44257927,"{ ""tooltip"": ""Lidl<br/>Dartford<br/>Kent<br/>DA1 2AG"", ""geometry"": { ""coordinates"": [ 0.214093148, 51.44257927 ] } },"
Lidl,Gravesend,Central Gravesend,Kent,DA11 0DQ,0.359530304,51.44450718,"{ ""tooltip"": ""Lidl<br/>Gravesend<br/>Kent<br/>DA11 0DQ"", ""geometry"": { ""coordinates"": [ 0.359530304, 51.44450718 ] } },"
Aldi,Gravesend,Northfleet,Kent,DA11 9LY,0.354739113,51.44196169,"{ ""tooltip"": ""Aldi<br/>Gravesend<br/>Kent<br/>DA11 9LY"", ""geometry"": { ""coordinates"": [ 0.354739113, 51.44196169 ] } },"
Lidl,Sevenoaks,Sevenoaks,Kent,TN13 2JD,0.177872456,51.27932337,"{ ""tooltip"": ""Lidl<br/>Sevenoaks<br/>Kent<br/>TN13 2JD"", ""geometry"": { ""coordinates"": [ 0.177872456, 51.27932337 ] } },"
Aldi,Sevenoaks,Sevenoaks,Kent,TN14 5EG,0.190583401,51.29575668,"{ ""tooltip"": ""Aldi<br/>Sevenoaks<br/>Kent<br/>TN14 5EG"", ""geometry"": { ""coordinates"": [ 0.190583401, 51.29575668 ] } },"
Aldi,Sittingbourne,Central Sittingbourne,Kent,ME10 4BL,0.74503563,51.33865535,"{ ""tooltip"": ""Aldi<br/>Sittingbourne<br/>Kent<br/>ME10 4BL"", ""geometry"": { ""coordinates"": [ 0.74503563, 51.33865535 ] } },"
Lidl,Sittingbourne,Central Sittingbourne,Kent,ME10 1AR,0.731158586,51.34116239,"{ ""tooltip"": ""Lidl<br/>Sittingbourne<br/>Kent<br/>ME10 1AR"", ""geometry"": { ""coordinates"": [ 0.731158586, 51.34116239 ] } },"
Aldi,Faversham,Faversham,Kent,ME13 8ZB,0.887141392,51.30371905,"{ ""tooltip"": ""Aldi<br/>Faversham<br/>Kent<br/>ME13 8ZB"", ""geometry"": { ""coordinates"": [ 0.887141392, 51.30371905 ] } },"
Aldi,Sheerness,,Kent,ME12 1AQ,0.759531303,51.4395611,"{ ""tooltip"": ""Aldi<br/>Sheerness<br/>Kent<br/>ME12 1AQ"", ""geometry"": { ""coordinates"": [ 0.759531303, 51.4395611 ] } },"
Lidl,Edenbridge,,Kent,TN8 6EJ,0.062344849,51.20656973,"{ ""tooltip"": ""Lidl<br/>Edenbridge<br/>Kent<br/>TN8 6EJ"", ""geometry"": { ""coordinates"": [ 0.062344849, 51.20656973 ] } },"
Lidl,Colburn,,North Yorkshire,DL9 4RP,-1.67896657,54.38020918,"{ ""tooltip"": ""Lidl<br/>Colburn<br/>North Yorkshire<br/>DL9 4RP"", ""geometry"": { ""coordinates"": [ -1.67896657, 54.38020918 ] } },"
Lidl,Richmond,,North Yorkshire,DL10 4AJ,-1.738482891,54.40596968,"{ ""tooltip"": ""Lidl<br/>Richmond<br/>North Yorkshire<br/>DL10 4AJ"", ""geometry"": { ""coordinates"": [ -1.738482891, 54.40596968 ] } },"
Aldi,Catterick Garrison,Catterick Garrison,North Yorkshire,DL9 3JA,-1.720962363,54.37416832,"{ ""tooltip"": ""Aldi<br/>Catterick Garrison<br/>North Yorkshire<br/>DL9 3JA"", ""geometry"": { ""coordinates"": [ -1.720962363, 54.37416832 ] } },"
Aldi,Thirsk,Sowerby,North Yorkshire,YO7 3HF,-1.351675097,54.21860685,"{ ""tooltip"": ""Aldi<br/>Thirsk<br/>North Yorkshire<br/>YO7 3HF"", ""geometry"": { ""coordinates"": [ -1.351675097, 54.21860685 ] } },"
Aldi,Sherburn in Elmet,,North Yorkshire,LS25 6BB,-1.250335355,53.79430347,"{ ""tooltip"": ""Aldi<br/>Sherburn in Elmet<br/>North Yorkshire<br/>LS25 6BB"", ""geometry"": { ""coordinates"": [ -1.250335355, 53.79430347 ] } },"
Aldi,Yarm,,North Yorkshire,TS15 9XN,-1.344009896,54.49778864,"{ ""tooltip"": ""Aldi<br/>Yarm<br/>North Yorkshire<br/>TS15 9XN"", ""geometry"": { ""coordinates"": [ -1.344009896, 54.49778864 ] } },"
Aldi,Middlesbrough,Coulby Newham,North Yorkshire,TS8 0TW,-1.216516448,54.52239306,"{ ""tooltip"": ""Aldi<br/>Middlesbrough<br/>North Yorkshire<br/>TS8 0TW"", ""geometry"": { ""coordinates"": [ -1.216516448, 54.52239306 ] } },"
Aldi,Middlesbrough,Grangetown,North Yorkshire,TS6 9TL,-1.159777088,54.57321214,"{ ""tooltip"": ""Aldi<br/>Middlesbrough<br/>North Yorkshire<br/>TS6 9TL"", ""geometry"": { ""coordinates"": [ -1.159777088, 54.57321214 ] } },"
Aldi,Middlesbrough,Grove Hill,North Yorkshire,TS4 2PQ,-1.221700569,54.55919713,"{ ""tooltip"": ""Aldi<br/>Middlesbrough<br/>North Yorkshire<br/>TS4 2PQ"", ""geometry"": { ""coordinates"": [ -1.221700569, 54.55919713 ] } },"
Lidl,Thornaby On Tees,South Thornaby,North Yorkshire,TS17 9FF,-1.292299989,54.54008006,"{ ""tooltip"": ""Lidl<br/>Thornaby On Tees<br/>North Yorkshire<br/>TS17 9FF"", ""geometry"": { ""coordinates"": [ -1.292299989, 54.54008006 ] } },"
Lidl,Middlesbrough,Ormesby,North Yorkshire,TS3 8AL,-1.200299039,54.56932358,"{ ""tooltip"": ""Lidl<br/>Middlesbrough<br/>North Yorkshire<br/>TS3 8AL"", ""geometry"": { ""coordinates"": [ -1.200299039, 54.56932358 ] } },"
Lidl,Middlesbrough,Linthorpe,North Yorkshire,TS1 5QL,-1.253435572,54.57116386,"{ ""tooltip"": ""Lidl<br/>Middlesbrough<br/>North Yorkshire<br/>TS1 5QL"", ""geometry"": { ""coordinates"": [ -1.253435572, 54.57116386 ] } },"
Aldi,Thornaby On Tees,South Thornaby,North Yorkshire,TS17 9HA,-1.290787617,54.53587488,"{ ""tooltip"": ""Aldi<br/>Thornaby On Tees<br/>North Yorkshire<br/>TS17 9HA"", ""geometry"": { ""coordinates"": [ -1.290787617, 54.53587488 ] } },"
Aldi,Middlesbrough,Linthorpe,North Yorkshire,TS1 5JF,-1.243596395,54.57498591,"{ ""tooltip"": ""Aldi<br/>Middlesbrough<br/>North Yorkshire<br/>TS1 5JF"", ""geometry"": { ""coordinates"": [ -1.243596395, 54.57498591 ] } },"
Lidl,Thirsk,Thirsk,North Yorkshire,YO7 1TQ,-1.34776774,54.23179338,"{ ""tooltip"": ""Lidl<br/>Thirsk<br/>North Yorkshire<br/>YO7 1TQ"", ""geometry"": { ""coordinates"": [ -1.34776774, 54.23179338 ] } },"
Lidl,Northallerton,Northallerton,North Yorkshire,DL6 1DG,-1.430297072,54.33833593,"{ ""tooltip"": ""Lidl<br/>Northallerton<br/>North Yorkshire<br/>DL6 1DG"", ""geometry"": { ""coordinates"": [ -1.430297072, 54.33833593 ] } },"
Lidl,Whitby,Whitby,North Yorkshire,YO21 1HS,-0.635452996,54.48586433,"{ ""tooltip"": ""Lidl<br/>Whitby<br/>North Yorkshire<br/>YO21 1HS"", ""geometry"": { ""coordinates"": [ -0.635452996, 54.48586433 ] } },"
Aldi,Scarborough,Central Scarborough,North Yorkshire,YO12 7AB,-0.407346696,54.28218844,"{ ""tooltip"": ""Aldi<br/>Scarborough<br/>North Yorkshire<br/>YO12 7AB"", ""geometry"": { ""coordinates"": [ -0.407346696, 54.28218844 ] } },"
Lidl,Scarborough,Falsgrave,North Yorkshire,YO12 4HF,-0.418030746,54.26540989,"{ ""tooltip"": ""Lidl<br/>Scarborough<br/>North Yorkshire<br/>YO12 4HF"", ""geometry"": { ""coordinates"": [ -0.418030746, 54.26540989 ] } },"
Lidl,Guisborough,,North Yorkshire,TS14 7LG,-1.059545806,54.53045185,"{ ""tooltip"": ""Lidl<br/>Guisborough<br/>North Yorkshire<br/>TS14 7LG"", ""geometry"": { ""coordinates"": [ -1.059545806, 54.53045185 ] } },"
Aldi,Whitby,Whitby,North Yorkshire,YO22 4PU,-0.598626601,54.4702807,"{ ""tooltip"": ""Aldi<br/>Whitby<br/>North Yorkshire<br/>YO22 4PU"", ""geometry"": { ""coordinates"": [ -0.598626601, 54.4702807 ] } },"
Aldi,Guisborough,,North Yorkshire,TS14 7FE,-1.055007323,54.53185747,"{ ""tooltip"": ""Aldi<br/>Guisborough<br/>North Yorkshire<br/>TS14 7FE"", ""geometry"": { ""coordinates"": [ -1.055007323, 54.53185747 ] } },"
Lidl,Pickering,,North Yorkshire,YO18 8BP,-0.779629932,54.24475357,"{ ""tooltip"": ""Lidl<br/>Pickering<br/>North Yorkshire<br/>YO18 8BP"", ""geometry"": { ""coordinates"": [ -0.779629932, 54.24475357 ] } },"
Aldi,"Skelton, North Yorkshire, TS12",,North Yorkshire,TS12 2ZL,-0.964598899,54.56662035,"{ ""tooltip"": ""Aldi<br/>Skelton, North Yorkshire, TS12<br/>North Yorkshire<br/>TS12 2ZL"", ""geometry"": { ""coordinates"": [ -0.964598899, 54.56662035 ] } },"
Aldi,Redcar,Redcar,North Yorkshire,TS10 4SD,-1.068177383,54.59407024,"{ ""tooltip"": ""Aldi<br/>Redcar<br/>North Yorkshire<br/>TS10 4SD"", ""geometry"": { ""coordinates"": [ -1.068177383, 54.59407024 ] } },"
Aldi,Selby,,North Yorkshire,YO8 8LY,-1.064597591,53.77203883,"{ ""tooltip"": ""Aldi<br/>Selby<br/>North Yorkshire<br/>YO8 8LY"", ""geometry"": { ""coordinates"": [ -1.064597591, 53.77203883 ] } },"
Lidl,Selby,,North Yorkshire,YO8 8SQ,-1.062050472,53.76743018,"{ ""tooltip"": ""Lidl<br/>Selby<br/>North Yorkshire<br/>YO8 8SQ"", ""geometry"": { ""coordinates"": [ -1.062050472, 53.76743018 ] } },"
Aldi,Skipton,,North Yorkshire,BD23 2TA,-2.013692429,53.94123033,"{ ""tooltip"": ""Aldi<br/>Skipton<br/>North Yorkshire<br/>BD23 2TA"", ""geometry"": { ""coordinates"": [ -2.013692429, 53.94123033 ] } },"
Lidl,Norton on Derwent,,North Yorkshire,YO17 9DP,-0.791864795,54.1317537,"{ ""tooltip"": ""Lidl<br/>Norton on Derwent<br/>North Yorkshire<br/>YO17 9DP"", ""geometry"": { ""coordinates"": [ -0.791864795, 54.1317537 ] } },"
Lidl,York,Central York,North Yorkshire,YO10 3DW,-1.068929013,53.95843229,"{ ""tooltip"": ""Lidl<br/>York<br/>North Yorkshire<br/>YO10 3DW"", ""geometry"": { ""coordinates"": [ -1.068929013, 53.95843229 ] } },"
Aldi,York,Fulford,North Yorkshire,YO10 4PA,-1.075334318,53.94368977,"{ ""tooltip"": ""Aldi<br/>York<br/>North Yorkshire<br/>YO10 4PA"", ""geometry"": { ""coordinates"": [ -1.075334318, 53.94368977 ] } },"
Aldi,York,Clifton,North Yorkshire,YO30 6PQ,-1.094619372,53.98221983,"{ ""tooltip"": ""Aldi<br/>York<br/>North Yorkshire<br/>YO30 6PQ"", ""geometry"": { ""coordinates"": [ -1.094619372, 53.98221983 ] } },"
Aldi,York,Huntington,North Yorkshire,YO32 9JS,-1.048273148,53.98508387,"{ ""tooltip"": ""Aldi<br/>York<br/>North Yorkshire<br/>YO32 9JS"", ""geometry"": { ""coordinates"": [ -1.048273148, 53.98508387 ] } },"
Lidl,York,Woodthorpe,North Yorkshire,YO24 2PE,-1.120929553,53.94415792,"{ ""tooltip"": ""Lidl<br/>York<br/>North Yorkshire<br/>YO24 2PE"", ""geometry"": { ""coordinates"": [ -1.120929553, 53.94415792 ] } },"
Lidl,Knaresborough,,North Yorkshire,HG5 0DH,-1.453256881,54.00679655,"{ ""tooltip"": ""Lidl<br/>Knaresborough<br/>North Yorkshire<br/>HG5 0DH"", ""geometry"": { ""coordinates"": [ -1.453256881, 54.00679655 ] } },"
Aldi,Ripon,,North Yorkshire,HG4 1LH,-1.518873474,54.1384208,"{ ""tooltip"": ""Aldi<br/>Ripon<br/>North Yorkshire<br/>HG4 1LH"", ""geometry"": { ""coordinates"": [ -1.518873474, 54.1384208 ] } },"
Aldi,Harrogate,Jennyfield,North Yorkshire,HG1 3HT,-1.554051006,54.00874864,"{ ""tooltip"": ""Aldi<br/>Harrogate<br/>North Yorkshire<br/>HG1 3HT"", ""geometry"": { ""coordinates"": [ -1.554051006, 54.00874864 ] } },"
Aldi,Galashiels,,Scottish Borders,TD1 1PX,-2.8232774,55.62265173,"{ ""tooltip"": ""Aldi<br/>Galashiels<br/>Scottish Borders<br/>TD1 1PX"", ""geometry"": { ""coordinates"": [ -2.8232774, 55.62265173 ] } },"
Lidl,Hawick,,Scottish Borders,TD9 7DS,-2.790616961,55.42468511,"{ ""tooltip"": ""Lidl<br/>Hawick<br/>Scottish Borders<br/>TD9 7DS"", ""geometry"": { ""coordinates"": [ -2.790616961, 55.42468511 ] } },"
Aldi,Hawick,,Scottish Borders,TD9 7AD,-2.786483754,55.42773783,"{ ""tooltip"": ""Aldi<br/>Hawick<br/>Scottish Borders<br/>TD9 7AD"", ""geometry"": { ""coordinates"": [ -2.786483754, 55.42773783 ] } },"
Lidl,Kelso,,Scottish Borders,TD5 7AL,-2.427932311,55.59898125,"{ ""tooltip"": ""Lidl<br/>Kelso<br/>Scottish Borders<br/>TD5 7AL"", ""geometry"": { ""coordinates"": [ -2.427932311, 55.59898125 ] } },"
Lidl,Morpeth,Morpeth,Northumberland,NE61 1PA,-1.687409947,55.16789964,"{ ""tooltip"": ""Lidl<br/>Morpeth<br/>Northumberland<br/>NE61 1PA"", ""geometry"": { ""coordinates"": [ -1.687409947, 55.16789964 ] } },"
Aldi,Ashington,High Market,Northumberland,NE63 8QG,-1.587162622,55.18543217,"{ ""tooltip"": ""Aldi<br/>Ashington<br/>Northumberland<br/>NE63 8QG"", ""geometry"": { ""coordinates"": [ -1.587162622, 55.18543217 ] } },"
Lidl,Blyth,Blyth,Northumberland,NE24 5SU,-1.524776768,55.1321187,"{ ""tooltip"": ""Lidl<br/>Blyth<br/>Northumberland<br/>NE24 5SU"", ""geometry"": { ""coordinates"": [ -1.524776768, 55.1321187 ] } },"
Aldi,Blyth,Cowpen,Northumberland,NE24 5EZ,-1.536935582,55.13121162,"{ ""tooltip"": ""Aldi<br/>Blyth<br/>Northumberland<br/>NE24 5EZ"", ""geometry"": { ""coordinates"": [ -1.536935582, 55.13121162 ] } },"
Lidl,Bedlington,Red House Farm,Northumberland,NE22 6BP,-1.597483446,55.13273017,"{ ""tooltip"": ""Lidl<br/>Bedlington<br/>Northumberland<br/>NE22 6BP"", ""geometry"": { ""coordinates"": [ -1.597483446, 55.13273017 ] } },"
Lidl,Ashington,Hirst,Northumberland,NE63 9AQ,-1.566628454,55.18545003,"{ ""tooltip"": ""Lidl<br/>Ashington<br/>Northumberland<br/>NE63 9AQ"", ""geometry"": { ""coordinates"": [ -1.566628454, 55.18545003 ] } },"
Lidl,Alnwick,,Northumberland,NE66 2QL,-1.697502357,55.4090592,"{ ""tooltip"": ""Lidl<br/>Alnwick<br/>Northumberland<br/>NE66 2QL"", ""geometry"": { ""coordinates"": [ -1.697502357, 55.4090592 ] } },"
Aldi,Alnwick,,Northumberland,NE66 2PA,-1.693001201,55.40551693,"{ ""tooltip"": ""Aldi<br/>Alnwick<br/>Northumberland<br/>NE66 2PA"", ""geometry"": { ""coordinates"": [ -1.693001201, 55.40551693 ] } },"
Aldi,Hexham,,Northumberland,NE46 3PU,-2.101175062,54.97421961,"{ ""tooltip"": ""Aldi<br/>Hexham<br/>Northumberland<br/>NE46 3PU"", ""geometry"": { ""coordinates"": [ -2.101175062, 54.97421961 ] } },"
Aldi,Prudhoe,Prudhoe,Northumberland,NE42 6BU,-1.837155293,54.96887439,"{ ""tooltip"": ""Aldi<br/>Prudhoe<br/>Northumberland<br/>NE42 6BU"", ""geometry"": { ""coordinates"": [ -1.837155293, 54.96887439 ] } },"
Aldi,Cramlington,High Pit,Northumberland,NE23 1DA,-1.58073011,55.08747451,"{ ""tooltip"": ""Aldi<br/>Cramlington<br/>Northumberland<br/>NE23 1DA"", ""geometry"": { ""coordinates"": [ -1.58073011, 55.08747451 ] } },"
Aldi,Berwick-upon-Tweed,Berwick-upon-Tweed,Northumberland,TD15 1QQ,-2.012453014,55.78195931,"{ ""tooltip"": ""Aldi<br/>Berwick-upon-Tweed<br/>Northumberland<br/>TD15 1QQ"", ""geometry"": { ""coordinates"": [ -2.012453014, 55.78195931 ] } },"
Lidl,Cardiff,Penylan,South Glamorgan,CF23 9AN,-3.14429303,51.49667268,"{ ""tooltip"": ""Lidl<br/>Cardiff<br/>South Glamorgan<br/>CF23 9AN"", ""geometry"": { ""coordinates"": [ -3.14429303, 51.49667268 ] } },"
Aldi,Cardiff,Birchgrove,South Glamorgan,CF14 3AX,-3.20479385,51.5010811,"{ ""tooltip"": ""Aldi<br/>Cardiff<br/>South Glamorgan<br/>CF14 3AX"", ""geometry"": { ""coordinates"": [ -3.20479385, 51.5010811 ] } },"
Aldi,Cardiff,Splott,South Glamorgan,CF24 1PQ,-3.145819797,51.49222975,"{ ""tooltip"": ""Aldi<br/>Cardiff<br/>South Glamorgan<br/>CF24 1PQ"", ""geometry"": { ""coordinates"": [ -3.145819797, 51.49222975 ] } },"
Lidl,Cardiff,Cathays,South Glamorgan,CF24 4HQ,-3.181963821,51.49091483,"{ ""tooltip"": ""Lidl<br/>Cardiff<br/>South Glamorgan<br/>CF24 4HQ"", ""geometry"": { ""coordinates"": [ -3.181963821, 51.49091483 ] } },"
Aldi,Cardiff,Birchgrove,South Glamorgan,CF14 4QT,-3.201712422,51.51786391,"{ ""tooltip"": ""Aldi<br/>Cardiff<br/>South Glamorgan<br/>CF14 4QT"", ""geometry"": { ""coordinates"": [ -3.201712422, 51.51786391 ] } },"
Lidl,Cardiff,Birchgrove,South Glamorgan,CF14 4HH,-3.200471674,51.52020817,"{ ""tooltip"": ""Lidl<br/>Cardiff<br/>South Glamorgan<br/>CF14 4HH"", ""geometry"": { ""coordinates"": [ -3.200471674, 51.52020817 ] } },"
Lidl,Cardiff,Canton,South Glamorgan,CF11 8AZ,-3.204418887,51.47447439,"{ ""tooltip"": ""Lidl<br/>Cardiff<br/>South Glamorgan<br/>CF11 8AZ"", ""geometry"": { ""coordinates"": [ -3.204418887, 51.47447439 ] } },"
Aldi,Cardiff,Grangetown,South Glamorgan,CF11 0JR,-3.182974549,51.45449198,"{ ""tooltip"": ""Aldi<br/>Cardiff<br/>South Glamorgan<br/>CF11 0JR"", ""geometry"": { ""coordinates"": [ -3.182974549, 51.45449198 ] } },"
Lidl,Cardiff,Whitchurch,South Glamorgan,CF14 2FB,-3.227592528,51.5034668,"{ ""tooltip"": ""Lidl<br/>Cardiff<br/>South Glamorgan<br/>CF14 2FB"", ""geometry"": { ""coordinates"": [ -3.227592528, 51.5034668 ] } },"
Lidl,Cardiff,Pentwyn,South Glamorgan,CF23 8XN,-3.137304875,51.52938492,"{ ""tooltip"": ""Lidl<br/>Cardiff<br/>South Glamorgan<br/>CF23 8XN"", ""geometry"": { ""coordinates"": [ -3.137304875, 51.52938492 ] } },"
Aldi,Cardiff,Pentwyn,South Glamorgan,CF23 8SQ,-3.150878131,51.53090315,"{ ""tooltip"": ""Aldi<br/>Cardiff<br/>South Glamorgan<br/>CF23 8SQ"", ""geometry"": { ""coordinates"": [ -3.150878131, 51.53090315 ] } },"
Lidl,Cardiff,Splott,South Glamorgan,CF24 5EH,-3.157796011,51.47954572,"{ ""tooltip"": ""Lidl<br/>Cardiff<br/>South Glamorgan<br/>CF24 5EH"", ""geometry"": { ""coordinates"": [ -3.157796011, 51.47954572 ] } },"
Aldi,Cardiff,Ely,South Glamorgan,CF5 6XW,-3.269013266,51.46435915,"{ ""tooltip"": ""Aldi<br/>Cardiff<br/>South Glamorgan<br/>CF5 6XW"", ""geometry"": { ""coordinates"": [ -3.269013266, 51.46435915 ] } },"
Lidl,Cardiff,Ely,South Glamorgan,CF5 5TD,-3.250080366,51.47441604,"{ ""tooltip"": ""Lidl<br/>Cardiff<br/>South Glamorgan<br/>CF5 5TD"", ""geometry"": { ""coordinates"": [ -3.250080366, 51.47441604 ] } },"
Aldi,Cardiff,Ely,South Glamorgan,CF5 5NU,-3.237459995,51.48027053,"{ ""tooltip"": ""Aldi<br/>Cardiff<br/>South Glamorgan<br/>CF5 5NU"", ""geometry"": { ""coordinates"": [ -3.237459995, 51.48027053 ] } },"
Lidl,Barry,Gibbonsdown,South Glamorgan,CF63 1BP,-3.253053787,51.42482217,"{ ""tooltip"": ""Lidl<br/>Barry<br/>South Glamorgan<br/>CF63 1BP"", ""geometry"": { ""coordinates"": [ -3.253053787, 51.42482217 ] } },"
Aldi,Skegness,Skegness,Lincolnshire,PE25 2RT,0.333309621,53.15110609,"{ ""tooltip"": ""Aldi<br/>Skegness<br/>Lincolnshire<br/>PE25 2RT"", ""geometry"": { ""coordinates"": [ 0.333309621, 53.15110609 ] } },"
Lidl,Skegness,Skegness,Lincolnshire,PE25 3PQ,0.333408269,53.14217741,"{ ""tooltip"": ""Lidl<br/>Skegness<br/>Lincolnshire<br/>PE25 3PQ"", ""geometry"": { ""coordinates"": [ 0.333408269, 53.14217741 ] } },"
Lidl,Mablethorpe,Mablethorpe,Lincolnshire,LN12 1DP,0.256299851,53.33937095,"{ ""tooltip"": ""Lidl<br/>Mablethorpe<br/>Lincolnshire<br/>LN12 1DP"", ""geometry"": { ""coordinates"": [ 0.256299851, 53.33937095 ] } },"
Aldi,Grantham,Central Grantham,Lincolnshire,NG31 6HT,-0.635570302,52.90148321,"{ ""tooltip"": ""Aldi<br/>Grantham<br/>Lincolnshire<br/>NG31 6HT"", ""geometry"": { ""coordinates"": [ -0.635570302, 52.90148321 ] } },"
Lidl,Grantham,Central Grantham,Lincolnshire,NG31 6NS,-0.644364521,52.9145122,"{ ""tooltip"": ""Lidl<br/>Grantham<br/>Lincolnshire<br/>NG31 6NS"", ""geometry"": { ""coordinates"": [ -0.644364521, 52.9145122 ] } },"
Aldi,Lincoln,Bracebridge,Lincolnshire,LN5 8NT,-0.551012936,53.20657778,"{ ""tooltip"": ""Aldi<br/>Lincoln<br/>Lincolnshire<br/>LN5 8NT"", ""geometry"": { ""coordinates"": [ -0.551012936, 53.20657778 ] } },"
Lidl,Lincoln,North Hykeham,Lincolnshire,LN6 8RA,-0.584189623,53.19360463,"{ ""tooltip"": ""Lidl<br/>Lincoln<br/>Lincolnshire<br/>LN6 8RA"", ""geometry"": { ""coordinates"": [ -0.584189623, 53.19360463 ] } },"
Aldi,Lincoln,St Giles,Lincolnshire,LN2 4PX,-0.513766914,53.24049407,"{ ""tooltip"": ""Aldi<br/>Lincoln<br/>Lincolnshire<br/>LN2 4PX"", ""geometry"": { ""coordinates"": [ -0.513766914, 53.24049407 ] } },"
Lidl,Lincoln,St Giles,Lincolnshire,LN2 4JA,-0.509852971,53.24108581,"{ ""tooltip"": ""Lidl<br/>Lincoln<br/>Lincolnshire<br/>LN2 4JA"", ""geometry"": { ""coordinates"": [ -0.509852971, 53.24108581 ] } },"
Lidl,Lincoln,Boultham,Lincolnshire,LN6 7SA,-0.553016985,53.21880414,"{ ""tooltip"": ""Lidl<br/>Lincoln<br/>Lincolnshire<br/>LN6 7SA"", ""geometry"": { ""coordinates"": [ -0.553016985, 53.21880414 ] } },"
Lidl,Boston,Langrick,Lincolnshire,PE21 6PA,-0.021383726,52.98102241,"{ ""tooltip"": ""Lidl<br/>Boston<br/>Lincolnshire<br/>PE21 6PA"", ""geometry"": { ""coordinates"": [ -0.021383726, 52.98102241 ] } },"
Aldi,Boston,Hubbert's Bridge,Lincolnshire,PE21 8XZ,-0.031623283,52.9756604,"{ ""tooltip"": ""Aldi<br/>Boston<br/>Lincolnshire<br/>PE21 8XZ"", ""geometry"": { ""coordinates"": [ -0.031623283, 52.9756604 ] } },"
Lidl,Boston,Hubbert's Bridge,Lincolnshire,PE21 7JD,-0.063942576,52.97125567,"{ ""tooltip"": ""Lidl<br/>Boston<br/>Lincolnshire<br/>PE21 7JD"", ""geometry"": { ""coordinates"": [ -0.063942576, 52.97125567 ] } },"
Aldi,Spalding,Spalding,Lincolnshire,PE11 2XY,-0.157088731,52.78666542,"{ ""tooltip"": ""Aldi<br/>Spalding<br/>Lincolnshire<br/>PE11 2XY"", ""geometry"": { ""coordinates"": [ -0.157088731, 52.78666542 ] } },"
Lidl,Spalding,Spalding,Lincolnshire,PE11 1EJ,-0.15666829,52.7874098,"{ ""tooltip"": ""Lidl<br/>Spalding<br/>Lincolnshire<br/>PE11 1EJ"", ""geometry"": { ""coordinates"": [ -0.15666829, 52.7874098 ] } },"
Lidl,Bourne,,Lincolnshire,PE10 0ET,-0.368056662,52.7548842,"{ ""tooltip"": ""Lidl<br/>Bourne<br/>Lincolnshire<br/>PE10 0ET"", ""geometry"": { ""coordinates"": [ -0.368056662, 52.7548842 ] } },"
Lidl,Sleaford,Sleaford,Lincolnshire,NG34 7AQ,-0.413250398,53.00460948,"{ ""tooltip"": ""Lidl<br/>Sleaford<br/>Lincolnshire<br/>NG34 7AQ"", ""geometry"": { ""coordinates"": [ -0.413250398, 53.00460948 ] } },"
Aldi,Sleaford,Sleaford,Lincolnshire,NG34 7JP,-0.407668149,52.9945766,"{ ""tooltip"": ""Aldi<br/>Sleaford<br/>Lincolnshire<br/>NG34 7JP"", ""geometry"": { ""coordinates"": [ -0.407668149, 52.9945766 ] } },"
Aldi,Louth,,Lincolnshire,LN11 0JT,0.001070508,53.37179831,"{ ""tooltip"": ""Aldi<br/>Louth<br/>Lincolnshire<br/>LN11 0JT"", ""geometry"": { ""coordinates"": [ 0.001070508, 53.37179831 ] } },"
Lidl,Spalding,Fulney,Lincolnshire,PE11 2HU,-0.134074152,52.79673983,"{ ""tooltip"": ""Lidl<br/>Spalding<br/>Lincolnshire<br/>PE11 2HU"", ""geometry"": { ""coordinates"": [ -0.134074152, 52.79673983 ] } },"
Lidl,"Stamford, Lincolnshire",,Lincolnshire,PE9 1UG,-0.464766701,52.6620605,"{ ""tooltip"": ""Lidl<br/>Stamford, Lincolnshire<br/>Lincolnshire<br/>PE9 1UG"", ""geometry"": { ""coordinates"": [ -0.464766701, 52.6620605 ] } },"
Aldi,Gainsborough,Gainsborough,Lincolnshire,DN21 1AF,-0.769592567,53.38770717,"{ ""tooltip"": ""Aldi<br/>Gainsborough<br/>Lincolnshire<br/>DN21 1AF"", ""geometry"": { ""coordinates"": [ -0.769592567, 53.38770717 ] } },"
Lidl,Gainsborough,Gainsborough,Lincolnshire,DN21 2EA,-0.773703481,53.39949933,"{ ""tooltip"": ""Lidl<br/>Gainsborough<br/>Lincolnshire<br/>DN21 2EA"", ""geometry"": { ""coordinates"": [ -0.773703481, 53.39949933 ] } },"
Lidl,Scunthorpe,Ashby,Lincolnshire,DN16 1BA,-0.623478647,53.56731206,"{ ""tooltip"": ""Lidl<br/>Scunthorpe<br/>Lincolnshire<br/>DN16 1BA"", ""geometry"": { ""coordinates"": [ -0.623478647, 53.56731206 ] } },"
Aldi,Scunthorpe,Central Scunthorpe,Lincolnshire,DN15 6AF,-0.645195154,53.5960371,"{ ""tooltip"": ""Aldi<br/>Scunthorpe<br/>Lincolnshire<br/>DN15 6AF"", ""geometry"": { ""coordinates"": [ -0.645195154, 53.5960371 ] } },"
Lidl,Scunthorpe,Central Scunthorpe,Lincolnshire,DN15 7DE,-0.655110472,53.59120913,"{ ""tooltip"": ""Lidl<br/>Scunthorpe<br/>Lincolnshire<br/>DN15 7DE"", ""geometry"": { ""coordinates"": [ -0.655110472, 53.59120913 ] } },"
Aldi,Scunthorpe,Ashby,Lincolnshire,DN16 2JU,-0.640756544,53.56630715,"{ ""tooltip"": ""Aldi<br/>Scunthorpe<br/>Lincolnshire<br/>DN16 2JU"", ""geometry"": { ""coordinates"": [ -0.640756544, 53.56630715 ] } },"
Aldi,Scunthorpe,Berkeley,Lincolnshire,DN15 8GR,-0.694031222,53.59058011,"{ ""tooltip"": ""Aldi<br/>Scunthorpe<br/>Lincolnshire<br/>DN15 8GR"", ""geometry"": { ""coordinates"": [ -0.694031222, 53.59058011 ] } },"
Lidl,Barton-upon-Humber,,Lincolnshire,DN18 5LQ,-0.466199959,53.68629999,"{ ""tooltip"": ""Lidl<br/>Barton-upon-Humber<br/>Lincolnshire<br/>DN18 5LQ"", ""geometry"": { ""coordinates"": [ -0.466199959, 53.68629999 ] } },"
Lidl,Brigg,Brigg,Lincolnshire,DN20 8AR,-0.497040902,53.55436873,"{ ""tooltip"": ""Lidl<br/>Brigg<br/>Lincolnshire<br/>DN20 8AR"", ""geometry"": { ""coordinates"": [ -0.497040902, 53.55436873 ] } },"
Aldi,Brigg,Brigg,Lincolnshire,DN20 8NF,-0.501477921,53.54970124,"{ ""tooltip"": ""Aldi<br/>Brigg<br/>Lincolnshire<br/>DN20 8NF"", ""geometry"": { ""coordinates"": [ -0.501477921, 53.54970124 ] } },"
Aldi,Immingham,,Lincolnshire,DN40 2AA,-0.210761318,53.61731721,"{ ""tooltip"": ""Aldi<br/>Immingham<br/>Lincolnshire<br/>DN40 2AA"", ""geometry"": { ""coordinates"": [ -0.210761318, 53.61731721 ] } },"
Lidl,Grimsby,Weelsby,Lincolnshire,DN32 9SW,-0.0661315,53.55729362,"{ ""tooltip"": ""Lidl<br/>Grimsby<br/>Lincolnshire<br/>DN32 9SW"", ""geometry"": { ""coordinates"": [ -0.0661315, 53.55729362 ] } },"
Aldi,Grimsby,East Marsh,Lincolnshire,DN31 3BH,-0.063087269,53.57388288,"{ ""tooltip"": ""Aldi<br/>Grimsby<br/>Lincolnshire<br/>DN31 3BH"", ""geometry"": { ""coordinates"": [ -0.063087269, 53.57388288 ] } },"
Lidl,Grimsby,West Marsh,Lincolnshire,DN31 2BB,-0.102403678,53.56548162,"{ ""tooltip"": ""Lidl<br/>Grimsby<br/>Lincolnshire<br/>DN31 2BB"", ""geometry"": { ""coordinates"": [ -0.102403678, 53.56548162 ] } },"
Aldi,Grimsby,West Marsh,Lincolnshire,DN34 5DN,-0.117064743,53.55800284,"{ ""tooltip"": ""Aldi<br/>Grimsby<br/>Lincolnshire<br/>DN34 5DN"", ""geometry"": { ""coordinates"": [ -0.117064743, 53.55800284 ] } },"
Lidl,Heacham,,Norfolk,PE31 7JF,0.503241657,52.90521771,"{ ""tooltip"": ""Lidl<br/>Heacham<br/>Norfolk<br/>PE31 7JF"", ""geometry"": { ""coordinates"": [ 0.503241657, 52.90521771 ] } },"
Aldi,King's Lynn,Fairstead,Norfolk,PE30 4QG,0.420917514,52.75681346,"{ ""tooltip"": ""Aldi<br/>King's Lynn<br/>Norfolk<br/>PE30 4QG"", ""geometry"": { ""coordinates"": [ 0.420917514, 52.75681346 ] } },"
Lidl,King's Lynn,North Lynn,Norfolk,PE30 1AS,0.40089986,52.75614291,"{ ""tooltip"": ""Lidl<br/>King's Lynn<br/>Norfolk<br/>PE30 1AS"", ""geometry"": { ""coordinates"": [ 0.40089986, 52.75614291 ] } },"
Aldi,Fakenham,,Norfolk,NR21 8AX,0.852502798,52.82966531,"{ ""tooltip"": ""Aldi<br/>Fakenham<br/>Norfolk<br/>NR21 8AX"", ""geometry"": { ""coordinates"": [ 0.852502798, 52.82966531 ] } },"
Lidl,Fakenham,,Norfolk,NR21 8JG,0.862026772,52.83591705,"{ ""tooltip"": ""Lidl<br/>Fakenham<br/>Norfolk<br/>NR21 8JG"", ""geometry"": { ""coordinates"": [ 0.862026772, 52.83591705 ] } },"
Lidl,Thetford,London Road,Norfolk,IP24 3RS,0.725171423,52.40448257,"{ ""tooltip"": ""Lidl<br/>Thetford<br/>Norfolk<br/>IP24 3RS"", ""geometry"": { ""coordinates"": [ 0.725171423, 52.40448257 ] } },"
Aldi,Thetford,East Wretham,Norfolk,IP24 2BU,0.752058026,52.41598812,"{ ""tooltip"": ""Aldi<br/>Thetford<br/>Norfolk<br/>IP24 2BU"", ""geometry"": { ""coordinates"": [ 0.752058026, 52.41598812 ] } },"
Aldi,Dereham,Toftwood,Norfolk,NR19 1AJ,0.949459411,52.66969633,"{ ""tooltip"": ""Aldi<br/>Dereham<br/>Norfolk<br/>NR19 1AJ"", ""geometry"": { ""coordinates"": [ 0.949459411, 52.66969633 ] } },"
Lidl,Attleborough,,Norfolk,NR17 2AG,1.014514978,52.51834397,"{ ""tooltip"": ""Lidl<br/>Attleborough<br/>Norfolk<br/>NR17 2AG"", ""geometry"": { ""coordinates"": [ 1.014514978, 52.51834397 ] } },"
Lidl,Dereham,Toftwood,Norfolk,NR19 1WB,0.953539215,52.67135878,"{ ""tooltip"": ""Lidl<br/>Dereham<br/>Norfolk<br/>NR19 1WB"", ""geometry"": { ""coordinates"": [ 0.953539215, 52.67135878 ] } },"
Lidl,"Wymondham, Norfolk",,Norfolk,NR18 0WF,1.139936627,52.57836714,"{ ""tooltip"": ""Lidl<br/>Wymondham, Norfolk<br/>Norfolk<br/>NR18 0WF"", ""geometry"": { ""coordinates"": [ 1.139936627, 52.57836714 ] } },"
Lidl,North Walsham,,Norfolk,NR28 9AS,1.388917099,52.81998589,"{ ""tooltip"": ""Lidl<br/>North Walsham<br/>Norfolk<br/>NR28 9AS"", ""geometry"": { ""coordinates"": [ 1.388917099, 52.81998589 ] } },"
Lidl,"Cromer, Norfolk",,Norfolk,NR27 9JW,1.286860591,52.92630651,"{ ""tooltip"": ""Lidl<br/>Cromer, Norfolk<br/>Norfolk<br/>NR27 9JW"", ""geometry"": { ""coordinates"": [ 1.286860591, 52.92630651 ] } },"
Aldi,Norwich,Earlham,Norfolk,NR5 8TZ,1.241644489,52.63891453,"{ ""tooltip"": ""Aldi<br/>Norwich<br/>Norfolk<br/>NR5 8TZ"", ""geometry"": { ""coordinates"": [ 1.241644489, 52.63891453 ] } },"
Lidl,Norwich,North Norwich,Norfolk,NR3 2RY,1.280837115,52.65088241,"{ ""tooltip"": ""Lidl<br/>Norwich<br/>Norfolk<br/>NR3 2RY"", ""geometry"": { ""coordinates"": [ 1.280837115, 52.65088241 ] } },"
Aldi,Norwich,Tuckswood,Norfolk,NR4 6DH,1.2911258,52.60958489,"{ ""tooltip"": ""Aldi<br/>Norwich<br/>Norfolk<br/>NR4 6DH"", ""geometry"": { ""coordinates"": [ 1.2911258, 52.60958489 ] } },"
Lidl,Norwich,Sprowston,Norfolk,NR7 8AB,1.33527765,52.66172351,"{ ""tooltip"": ""Lidl<br/>Norwich<br/>Norfolk<br/>NR7 8AB"", ""geometry"": { ""coordinates"": [ 1.33527765, 52.66172351 ] } },"
Aldi,Norwich,North Norwich,Norfolk,NR3 2DW,1.281947417,52.64251406,"{ ""tooltip"": ""Aldi<br/>Norwich<br/>Norfolk<br/>NR3 2DW"", ""geometry"": { ""coordinates"": [ 1.281947417, 52.64251406 ] } },"
Aldi,Norwich,North Norwich,Norfolk,NR3 4EB,1.308501794,52.64990882,"{ ""tooltip"": ""Aldi<br/>Norwich<br/>Norfolk<br/>NR3 4EB"", ""geometry"": { ""coordinates"": [ 1.308501794, 52.64990882 ] } },"
Lidl,Norwich,North Norwich,Norfolk,NR3 2DP,1.276693352,52.64467163,"{ ""tooltip"": ""Lidl<br/>Norwich<br/>Norfolk<br/>NR3 2DP"", ""geometry"": { ""coordinates"": [ 1.276693352, 52.64467163 ] } },"
Aldi,Norwich,Thorpe Hamlet,Norfolk,NR1 4JZ,1.327035924,52.63644152,"{ ""tooltip"": ""Aldi<br/>Norwich<br/>Norfolk<br/>NR1 4JZ"", ""geometry"": { ""coordinates"": [ 1.327035924, 52.63644152 ] } },"
Lidl,Great Yarmouth,Cobholm,Norfolk,NR31 0DW,1.719503986,52.60419878,"{ ""tooltip"": ""Lidl<br/>Great Yarmouth<br/>Norfolk<br/>NR31 0DW"", ""geometry"": { ""coordinates"": [ 1.719503986, 52.60419878 ] } },"
Aldi,Great Yarmouth,Central Yarmouth,Norfolk,NR30 1JT,1.723237013,52.61079422,"{ ""tooltip"": ""Aldi<br/>Great Yarmouth<br/>Norfolk<br/>NR30 1JT"", ""geometry"": { ""coordinates"": [ 1.723237013, 52.61079422 ] } },"
Lidl,Caister-on-Sea,,Norfolk,NR30 5JL,1.724252661,52.64850999,"{ ""tooltip"": ""Lidl<br/>Caister-on-Sea<br/>Norfolk<br/>NR30 5JL"", ""geometry"": { ""coordinates"": [ 1.724252661, 52.64850999 ] } },"
Aldi,Diss,,Norfolk,IP22 4AG,1.108528028,52.37413815,"{ ""tooltip"": ""Aldi<br/>Diss<br/>Norfolk<br/>IP22 4AG"", ""geometry"": { ""coordinates"": [ 1.108528028, 52.37413815 ] } },"
Aldi,Ludlow,,Shropshire,SY8 2PQ,-2.717556277,52.37162597,"{ ""tooltip"": ""Aldi<br/>Ludlow<br/>Shropshire<br/>SY8 2PQ"", ""geometry"": { ""coordinates"": [ -2.717556277, 52.37162597 ] } },"
Aldi,Telford,Overdale,Shropshire,TF3 4ET,-2.445741113,52.67704251,"{ ""tooltip"": ""Aldi<br/>Telford<br/>Shropshire<br/>TF3 4ET"", ""geometry"": { ""coordinates"": [ -2.445741113, 52.67704251 ] } },"
Aldi,Telford,Wellington,Shropshire,TF1 1ED,-2.52243488,52.70125556,"{ ""tooltip"": ""Aldi<br/>Telford<br/>Shropshire<br/>TF1 1ED"", ""geometry"": { ""coordinates"": [ -2.52243488, 52.70125556 ] } },"
Aldi,Telford,Woodside,Shropshire,TF7 5RQ,-2.459551286,52.64377195,"{ ""tooltip"": ""Aldi<br/>Telford<br/>Shropshire<br/>TF7 5RQ"", ""geometry"": { ""coordinates"": [ -2.459551286, 52.64377195 ] } },"
Aldi,Bridgnorth,Low Town,Shropshire,WV15 6AL,-2.407315338,52.52882332,"{ ""tooltip"": ""Aldi<br/>Bridgnorth<br/>Shropshire<br/>WV15 6AL"", ""geometry"": { ""coordinates"": [ -2.407315338, 52.52882332 ] } },"
Aldi,"Newport, Shropshire",Newport Central,Shropshire,TF10 7BX,-2.359906855,52.76217266,"{ ""tooltip"": ""Aldi<br/>Newport, Shropshire<br/>Shropshire<br/>TF10 7BX"", ""geometry"": { ""coordinates"": [ -2.359906855, 52.76217266 ] } },"
Lidl,"Newport, Shropshire",Newport Central,Shropshire,TF10 7BX,-2.359971648,52.7627319,"{ ""tooltip"": ""Lidl<br/>Newport, Shropshire<br/>Shropshire<br/>TF10 7BX"", ""geometry"": { ""coordinates"": [ -2.359971648, 52.7627319 ] } },"
Lidl,Telford,Hadley,Shropshire,TF1 5YN,-2.477374605,52.70687776,"{ ""tooltip"": ""Lidl<br/>Telford<br/>Shropshire<br/>TF1 5YN"", ""geometry"": { ""coordinates"": [ -2.477374605, 52.70687776 ] } },"
Aldi,Telford,Donnington,Shropshire,TF2 8JS,-2.44091572,52.72108255,"{ ""tooltip"": ""Aldi<br/>Telford<br/>Shropshire<br/>TF2 8JS"", ""geometry"": { ""coordinates"": [ -2.44091572, 52.72108255 ] } },"
Aldi,Telford,Priorslee,Shropshire,TF2 9NH,-2.443988811,52.68866623,"{ ""tooltip"": ""Aldi<br/>Telford<br/>Shropshire<br/>TF2 9NH"", ""geometry"": { ""coordinates"": [ -2.443988811, 52.68866623 ] } },"
Lidl,Telford,Woodside,Shropshire,TF7 5FL,-2.452778886,52.63859863,"{ ""tooltip"": ""Lidl<br/>Telford<br/>Shropshire<br/>TF7 5FL"", ""geometry"": { ""coordinates"": [ -2.452778886, 52.63859863 ] } },"
Aldi,Oswestry,,Shropshire,SY11 1RB,-3.05138309,52.8619475,"{ ""tooltip"": ""Aldi<br/>Oswestry<br/>Shropshire<br/>SY11 1RB"", ""geometry"": { ""coordinates"": [ -3.05138309, 52.8619475 ] } },"
Lidl,Oswestry,,Shropshire,SY11 2HU,-3.048958774,52.85378181,"{ ""tooltip"": ""Lidl<br/>Oswestry<br/>Shropshire<br/>SY11 2HU"", ""geometry"": { ""coordinates"": [ -3.048958774, 52.85378181 ] } },"
Aldi,Oswestry,,Shropshire,SY11 2RT,-3.04367958,52.85176392,"{ ""tooltip"": ""Aldi<br/>Oswestry<br/>Shropshire<br/>SY11 2RT"", ""geometry"": { ""coordinates"": [ -3.04367958, 52.85176392 ] } },"
Lidl,Market Drayton,,Shropshire,TF9 3AA,-2.485650439,52.90721364,"{ ""tooltip"": ""Lidl<br/>Market Drayton<br/>Shropshire<br/>TF9 3AA"", ""geometry"": { ""coordinates"": [ -2.485650439, 52.90721364 ] } },"
Aldi,Market Drayton,,Shropshire,TF9 3SP,-2.488707179,52.91166267,"{ ""tooltip"": ""Aldi<br/>Market Drayton<br/>Shropshire<br/>TF9 3SP"", ""geometry"": { ""coordinates"": [ -2.488707179, 52.91166267 ] } },"
Aldi,"Whitchurch, Shropshire",,Shropshire,SY13 1JG,-2.705350636,52.96809512,"{ ""tooltip"": ""Aldi<br/>Whitchurch, Shropshire<br/>Shropshire<br/>SY13 1JG"", ""geometry"": { ""coordinates"": [ -2.705350636, 52.96809512 ] } },"
Lidl,"Whitchurch, Shropshire",,Shropshire,SY13 1QL,-2.679152885,52.96846124,"{ ""tooltip"": ""Lidl<br/>Whitchurch, Shropshire<br/>Shropshire<br/>SY13 1QL"", ""geometry"": { ""coordinates"": [ -2.679152885, 52.96846124 ] } },"
Aldi,Shrewsbury,Mereside,Shropshire,SY2 6QW,-2.740239519,52.68790424,"{ ""tooltip"": ""Aldi<br/>Shrewsbury<br/>Shropshire<br/>SY2 6QW"", ""geometry"": { ""coordinates"": [ -2.740239519, 52.68790424 ] } },"
Aldi,Shrewsbury,Sundorne,Shropshire,SY1 4PR,-2.718416538,52.73610231,"{ ""tooltip"": ""Aldi<br/>Shrewsbury<br/>Shropshire<br/>SY1 4PR"", ""geometry"": { ""coordinates"": [ -2.718416538, 52.73610231 ] } },"
Lidl,Shrewsbury,Meole Village,Shropshire,SY2 6S,-2.747245648,52.68942058,"{ ""tooltip"": ""Lidl<br/>Shrewsbury<br/>Shropshire<br/>SY2 6S"", ""geometry"": { ""coordinates"": [ -2.747245648, 52.68942058 ] } },"
Lidl,Shrewsbury,Sundorne,Shropshire,SY1 3AA,-2.725775885,52.73627054,"{ ""tooltip"": ""Lidl<br/>Shrewsbury<br/>Shropshire<br/>SY1 3AA"", ""geometry"": { ""coordinates"": [ -2.725775885, 52.73627054 ] } },"
Lidl,Yeovil,Goar Knap,Somerset,BA21 5DW,-2.611275733,50.94670032,"{ ""tooltip"": ""Lidl<br/>Yeovil<br/>Somerset<br/>BA21 5DW"", ""geometry"": { ""coordinates"": [ -2.611275733, 50.94670032 ] } },"
Aldi,Yeovil,Central Yeovil,Somerset,BA21 4HA,-2.623350431,50.94311594,"{ ""tooltip"": ""Aldi<br/>Yeovil<br/>Somerset<br/>BA21 4HA"", ""geometry"": { ""coordinates"": [ -2.623350431, 50.94311594 ] } },"
Lidl,Crewkerne,,Somerset,TA18 7LU,-2.794747144,50.88438197,"{ ""tooltip"": ""Lidl<br/>Crewkerne<br/>Somerset<br/>TA18 7LU"", ""geometry"": { ""coordinates"": [ -2.794747144, 50.88438197 ] } },"
Lidl,Yeovil,Lysander Road,Somerset,BA20 2AJ,-2.641080676,50.93699812,"{ ""tooltip"": ""Lidl<br/>Yeovil<br/>Somerset<br/>BA20 2AJ"", ""geometry"": { ""coordinates"": [ -2.641080676, 50.93699812 ] } },"
Aldi,Shepton Mallet,,Somerset,BA4 5SB,-2.548406584,51.18867349,"{ ""tooltip"": ""Aldi<br/>Shepton Mallet<br/>Somerset<br/>BA4 5SB"", ""geometry"": { ""coordinates"": [ -2.548406584, 51.18867349 ] } },"
Aldi,Glastonbury,,Somerset,BA6 9FW,-2.73379722,51.14177109,"{ ""tooltip"": ""Aldi<br/>Glastonbury<br/>Somerset<br/>BA6 9FW"", ""geometry"": { ""coordinates"": [ -2.73379722, 51.14177109 ] } },"
Lidl,Wincanton,,Somerset,BA9 9EB,-2.415835321,51.05044227,"{ ""tooltip"": ""Lidl<br/>Wincanton<br/>Somerset<br/>BA9 9EB"", ""geometry"": { ""coordinates"": [ -2.415835321, 51.05044227 ] } },"
Lidl,Wells,,Somerset,BA5 2AZ,-2.653094585,51.20524442,"{ ""tooltip"": ""Lidl<br/>Wells<br/>Somerset<br/>BA5 2AZ"", ""geometry"": { ""coordinates"": [ -2.653094585, 51.20524442 ] } },"
Lidl,Frome,Keyford,Somerset,BA11 1RX,-2.316790831,51.22928905,"{ ""tooltip"": ""Lidl<br/>Frome<br/>Somerset<br/>BA11 1RX"", ""geometry"": { ""coordinates"": [ -2.316790831, 51.22928905 ] } },"
Lidl,Minehead,,Somerset,TA24 5BY,-3.464268858,51.2028212,"{ ""tooltip"": ""Lidl<br/>Minehead<br/>Somerset<br/>TA24 5BY"", ""geometry"": { ""coordinates"": [ -3.464268858, 51.2028212 ] } },"
Lidl,Midsomer Norton,Thicket Mead,Somerset,BA3 2DL,-2.479547123,51.28850537,"{ ""tooltip"": ""Lidl<br/>Midsomer Norton<br/>Somerset<br/>BA3 2DL"", ""geometry"": { ""coordinates"": [ -2.479547123, 51.28850537 ] } },"
Lidl,Bath,Odd Down,Somerset,BA2 1ES,-2.387533562,51.3811493,"{ ""tooltip"": ""Lidl<br/>Bath<br/>Somerset<br/>BA2 1ES"", ""geometry"": { ""coordinates"": [ -2.387533562, 51.3811493 ] } },"
Lidl,Portishead,Portishead Dock,Somerset,BS20 7DE,-2.763427252,51.48593456,"{ ""tooltip"": ""Lidl<br/>Portishead<br/>Somerset<br/>BS20 7DE"", ""geometry"": { ""coordinates"": [ -2.763427252, 51.48593456 ] } },"
Aldi,Portishead,Portishead Dock,Somerset,BS20 8LR,-2.766497949,51.48357588,"{ ""tooltip"": ""Aldi<br/>Portishead<br/>Somerset<br/>BS20 8LR"", ""geometry"": { ""coordinates"": [ -2.766497949, 51.48357588 ] } },"
Lidl,Clevedon,,Somerset,BS21 6HB,-2.855839958,51.43529704,"{ ""tooltip"": ""Lidl<br/>Clevedon<br/>Somerset<br/>BS21 6HB"", ""geometry"": { ""coordinates"": [ -2.855839958, 51.43529704 ] } },"
Aldi,Clevedon,,Somerset,BS21 6XT,-2.843307839,51.43348172,"{ ""tooltip"": ""Aldi<br/>Clevedon<br/>Somerset<br/>BS21 6XT"", ""geometry"": { ""coordinates"": [ -2.843307839, 51.43348172 ] } },"
Aldi,Weston-Super-Mare,Ashcombe Park,Somerset,BS22 8NA,-2.941201846,51.34454507,"{ ""tooltip"": ""Aldi<br/>Weston-Super-Mare<br/>Somerset<br/>BS22 8NA"", ""geometry"": { ""coordinates"": [ -2.941201846, 51.34454507 ] } },"
Lidl,Weston-Super-Mare,Bourneville,Somerset,BS24 9AA,-2.956432652,51.33159595,"{ ""tooltip"": ""Lidl<br/>Weston-Super-Mare<br/>Somerset<br/>BS24 9AA"", ""geometry"": { ""coordinates"": [ -2.956432652, 51.33159595 ] } },"
Lidl,Weston-Super-Mare,Worle,Somerset,BS22 6WE,-2.911272518,51.35873692,"{ ""tooltip"": ""Lidl<br/>Weston-Super-Mare<br/>Somerset<br/>BS22 6WE"", ""geometry"": { ""coordinates"": [ -2.911272518, 51.35873692 ] } },"
Aldi,Burnham-on-Sea,Highbridge,Somerset,TA9 4PW,-2.961176388,51.22800105,"{ ""tooltip"": ""Aldi<br/>Burnham-on-Sea<br/>Somerset<br/>TA9 4PW"", ""geometry"": { ""coordinates"": [ -2.961176388, 51.22800105 ] } },"
Lidl,Bridgwater,Eastover,Somerset,TA6 4AB,-2.998106232,51.13291449,"{ ""tooltip"": ""Lidl<br/>Bridgwater<br/>Somerset<br/>TA6 4AB"", ""geometry"": { ""coordinates"": [ -2.998106232, 51.13291449 ] } },"
Lidl,Taunton,Holway,Somerset,TA1 2BD,-3.083049645,51.01900891,"{ ""tooltip"": ""Lidl<br/>Taunton<br/>Somerset<br/>TA1 2BD"", ""geometry"": { ""coordinates"": [ -3.083049645, 51.01900891 ] } },"
Lidl,Burnham-on-Sea,Burnham-on-Sea,Somerset,TA8 1EL,-2.993678403,51.23654712,"{ ""tooltip"": ""Lidl<br/>Burnham-on-Sea<br/>Somerset<br/>TA8 1EL"", ""geometry"": { ""coordinates"": [ -2.993678403, 51.23654712 ] } },"
Lidl,Taunton,Central Taunton,Somerset,TA1 4AS,-3.107330786,51.01504584,"{ ""tooltip"": ""Lidl<br/>Taunton<br/>Somerset<br/>TA1 4AS"", ""geometry"": { ""coordinates"": [ -3.107330786, 51.01504584 ] } },"
Aldi,"Bathpool, Somerset",,Somerset,TA2 8BA,-3.068300702,51.02663024,"{ ""tooltip"": ""Aldi<br/>Bathpool, Somerset<br/>Somerset<br/>TA2 8BA"", ""geometry"": { ""coordinates"": [ -3.068300702, 51.02663024 ] } },"
Aldi,Bridgwater,Wembdon,Somerset,TA6 3EU,-3.004477843,51.13140784,"{ ""tooltip"": ""Aldi<br/>Bridgwater<br/>Somerset<br/>TA6 3EU"", ""geometry"": { ""coordinates"": [ -3.004477843, 51.13140784 ] } },"
Lidl,Chard,,Somerset,TA20 2LW,-2.956169979,50.87394043,"{ ""tooltip"": ""Lidl<br/>Chard<br/>Somerset<br/>TA20 2LW"", ""geometry"": { ""coordinates"": [ -2.956169979, 50.87394043 ] } },"
Lidl,Aylesbury,Central Aylesbury,Buckinghamshire,HP20 1DG,-0.807958962,51.82042449,"{ ""tooltip"": ""Lidl<br/>Aylesbury<br/>Buckinghamshire<br/>HP20 1DG"", ""geometry"": { ""coordinates"": [ -0.807958962, 51.82042449 ] } },"
Aldi,Aylesbury,Central Aylesbury,Buckinghamshire,HP20 1BT,-0.807820872,51.81958752,"{ ""tooltip"": ""Aldi<br/>Aylesbury<br/>Buckinghamshire<br/>HP20 1BT"", ""geometry"": { ""coordinates"": [ -0.807820872, 51.81958752 ] } },"
Lidl,Aylesbury,Watermead,Buckinghamshire,HP20 1GD,-0.790599441,51.81989126,"{ ""tooltip"": ""Lidl<br/>Aylesbury<br/>Buckinghamshire<br/>HP20 1GD"", ""geometry"": { ""coordinates"": [ -0.790599441, 51.81989126 ] } },"
Lidl,High Wycombe,Central High Wycombe,Buckinghamshire,HP11 2SB,-0.763255942,51.6327581,"{ ""tooltip"": ""Lidl<br/>High Wycombe<br/>Buckinghamshire<br/>HP11 2SB"", ""geometry"": { ""coordinates"": [ -0.763255942, 51.6327581 ] } },"
Aldi,High Wycombe,Central High Wycombe,Buckinghamshire,HP11 2RX,-0.760157454,51.63263902,"{ ""tooltip"": ""Aldi<br/>High Wycombe<br/>Buckinghamshire<br/>HP11 2RX"", ""geometry"": { ""coordinates"": [ -0.760157454, 51.63263902 ] } },"
Lidl,High Wycombe,Central High Wycombe,Buckinghamshire,HP11 1LJ,-0.728169936,51.62238649,"{ ""tooltip"": ""Lidl<br/>High Wycombe<br/>Buckinghamshire<br/>HP11 1LJ"", ""geometry"": { ""coordinates"": [ -0.728169936, 51.62238649 ] } },"
Aldi,High Wycombe,"Wycombe Marsh, High Wycombe",Buckinghamshire,HP13 7EQ,-0.713632664,51.61787368,"{ ""tooltip"": ""Aldi<br/>High Wycombe<br/>Buckinghamshire<br/>HP13 7EQ"", ""geometry"": { ""coordinates"": [ -0.713632664, 51.61787368 ] } },"
Aldi,Buckingham,Mount Pleasant,Buckinghamshire,MK18 1TG,-0.990182406,51.98911767,"{ ""tooltip"": ""Aldi<br/>Buckingham<br/>Buckinghamshire<br/>MK18 1TG"", ""geometry"": { ""coordinates"": [ -0.990182406, 51.98911767 ] } },"
Aldi,Aylesbury,Quarrendon,Buckinghamshire,HP19 8AW,-0.830717897,51.82352685,"{ ""tooltip"": ""Aldi<br/>Aylesbury<br/>Buckinghamshire<br/>HP19 8AW"", ""geometry"": { ""coordinates"": [ -0.830717897, 51.82352685 ] } },"
Lidl,Milton Keynes,Wovlerton,Buckinghamshire,MK12 5NT,-0.811139876,52.06361841,"{ ""tooltip"": ""Lidl<br/>Milton Keynes<br/>Buckinghamshire<br/>MK12 5NT"", ""geometry"": { ""coordinates"": [ -0.811139876, 52.06361841 ] } },"
Lidl,Buckingham,Buckingham,Buckinghamshire,MK18 1SR,-0.977800793,51.98903978,"{ ""tooltip"": ""Lidl<br/>Buckingham<br/>Buckinghamshire<br/>MK18 1SR"", ""geometry"": { ""coordinates"": [ -0.977800793, 51.98903978 ] } },"
Aldi,Milton Keynes,Great Linford,Buckinghamshire,MK14 6GU,-0.774162967,52.06200598,"{ ""tooltip"": ""Aldi<br/>Milton Keynes<br/>Buckinghamshire<br/>MK14 6GU"", ""geometry"": { ""coordinates"": [ -0.774162967, 52.06200598 ] } },"
Aldi,Milton Keynes,Emerson Valley,Buckinghamshire,MK4 4DD,-0.794737622,52.00513392,"{ ""tooltip"": ""Aldi<br/>Milton Keynes<br/>Buckinghamshire<br/>MK4 4DD"", ""geometry"": { ""coordinates"": [ -0.794737622, 52.00513392 ] } },"
Lidl,Milton Keynes,Bletchley,Buckinghamshire,MK2 2EN,-0.732101082,51.99750557,"{ ""tooltip"": ""Lidl<br/>Milton Keynes<br/>Buckinghamshire<br/>MK2 2EN"", ""geometry"": { ""coordinates"": [ -0.732101082, 51.99750557 ] } },"
Aldi,Milton Keynes,Bletchley,Buckinghamshire,MK1 1EY,-0.727660743,52.00346653,"{ ""tooltip"": ""Aldi<br/>Milton Keynes<br/>Buckinghamshire<br/>MK1 1EY"", ""geometry"": { ""coordinates"": [ -0.727660743, 52.00346653 ] } },"
Lidl,Milton Keynes,Milton Keynes,Buckinghamshire,MK6 2YA,-0.762339138,52.03000962,"{ ""tooltip"": ""Lidl<br/>Milton Keynes<br/>Buckinghamshire<br/>MK6 2YA"", ""geometry"": { ""coordinates"": [ -0.762339138, 52.03000962 ] } },"
Lidl,Milton Keynes,Middleton,Buckinghamshire,MK10 7AL,-0.677484467,52.04599488,"{ ""tooltip"": ""Lidl<br/>Milton Keynes<br/>Buckinghamshire<br/>MK10 7AL"", ""geometry"": { ""coordinates"": [ -0.677484467, 52.04599488 ] } },"
Aldi,Milton Keynes,Bradwell,Buckinghamshire,MK13 8BF,-0.776115467,52.04294394,"{ ""tooltip"": ""Aldi<br/>Milton Keynes<br/>Buckinghamshire<br/>MK13 8BF"", ""geometry"": { ""coordinates"": [ -0.776115467, 52.04294394 ] } },"
Aldi,Wadebridge,,Cornwall,PL27 7FE,-4.854407173,50.51773521,"{ ""tooltip"": ""Aldi<br/>Wadebridge<br/>Cornwall<br/>PL27 7FE"", ""geometry"": { ""coordinates"": [ -4.854407173, 50.51773521 ] } },"
Lidl,Newquay,Treloggan,Cornwall,TR7 2BB,-5.063095132,50.40230693,"{ ""tooltip"": ""Lidl<br/>Newquay<br/>Cornwall<br/>TR7 2BB"", ""geometry"": { ""coordinates"": [ -5.063095132, 50.40230693 ] } },"
Aldi,Newquay,Trenance,Cornwall,TR7 1SW,-5.077079461,50.41511992,"{ ""tooltip"": ""Aldi<br/>Newquay<br/>Cornwall<br/>TR7 1SW"", ""geometry"": { ""coordinates"": [ -5.077079461, 50.41511992 ] } },"
Aldi,Truro,Highertown,Cornwall,TR1 3PZ,-5.071650329,50.26183373,"{ ""tooltip"": ""Aldi<br/>Truro<br/>Cornwall<br/>TR1 3PZ"", ""geometry"": { ""coordinates"": [ -5.071650329, 50.26183373 ] } },"
Aldi,Camborne,Camborne,Cornwall,TR14 7DF,-5.301390286,50.21396447,"{ ""tooltip"": ""Aldi<br/>Camborne<br/>Cornwall<br/>TR14 7DF"", ""geometry"": { ""coordinates"": [ -5.301390286, 50.21396447 ] } },"
Lidl,Hayle,,Cornwall,TR27 5PN,-5.400629318,50.19673686,"{ ""tooltip"": ""Lidl<br/>Hayle<br/>Cornwall<br/>TR27 5PN"", ""geometry"": { ""coordinates"": [ -5.400629318, 50.19673686 ] } },"
Lidl,Helston,,Cornwall,TR13 0SF,-5.280343294,50.09968252,"{ ""tooltip"": ""Lidl<br/>Helston<br/>Cornwall<br/>TR13 0SF"", ""geometry"": { ""coordinates"": [ -5.280343294, 50.09968252 ] } },"
Lidl,Penzance,Penzance,Cornwall,TR18 4NP,-5.544000748,50.11202283,"{ ""tooltip"": ""Lidl<br/>Penzance<br/>Cornwall<br/>TR18 4NP"", ""geometry"": { ""coordinates"": [ -5.544000748, 50.11202283 ] } },"
Lidl,Penryn,,Cornwall,TR10 8AB,-5.090280121,50.16514553,"{ ""tooltip"": ""Lidl<br/>Penryn<br/>Cornwall<br/>TR10 8AB"", ""geometry"": { ""coordinates"": [ -5.090280121, 50.16514553 ] } },"
Aldi,St Austell,Mount Charles,Cornwall,PL25 4HW,-4.775148613,50.34242242,"{ ""tooltip"": ""Aldi<br/>St Austell<br/>Cornwall<br/>PL25 4HW"", ""geometry"": { ""coordinates"": [ -4.775148613, 50.34242242 ] } },"
Lidl,Camborne,Illogan Highway,Cornwall,TR15 3EE,-5.262418403,50.22821482,"{ ""tooltip"": ""Lidl<br/>Camborne<br/>Cornwall<br/>TR15 3EE"", ""geometry"": { ""coordinates"": [ -5.262418403, 50.22821482 ] } },"
Lidl,St Austell,Mount Charles,Cornwall,PL25 3HS,-4.76124506,50.34044154,"{ ""tooltip"": ""Lidl<br/>St Austell<br/>Cornwall<br/>PL25 3HS"", ""geometry"": { ""coordinates"": [ -4.76124506, 50.34044154 ] } },"
Aldi,Redruth,,Cornwall,TR15 1FH,-5.232214264,50.24254225,"{ ""tooltip"": ""Aldi<br/>Redruth<br/>Cornwall<br/>TR15 1FH"", ""geometry"": { ""coordinates"": [ -5.232214264, 50.24254225 ] } },"
Lidl,Wadebridge,,Cornwall,PL27 7AL,-4.839363164,50.51871383,"{ ""tooltip"": ""Lidl<br/>Wadebridge<br/>Cornwall<br/>PL27 7AL"", ""geometry"": { ""coordinates"": [ -4.839363164, 50.51871383 ] } },"
Lidl,Bude,,Cornwall,EX23 8BA,-4.528036707,50.82645995,"{ ""tooltip"": ""Lidl<br/>Bude<br/>Cornwall<br/>EX23 8BA"", ""geometry"": { ""coordinates"": [ -4.528036707, 50.82645995 ] } },"
Lidl,Saltash,,Cornwall,PL12 6TW,-4.233580903,50.41700843,"{ ""tooltip"": ""Lidl<br/>Saltash<br/>Cornwall<br/>PL12 6TW"", ""geometry"": { ""coordinates"": [ -4.233580903, 50.41700843 ] } },"
Aldi,Bodmin,,Cornwall,PL31 2FJ,-4.702428915,50.46730027,"{ ""tooltip"": ""Aldi<br/>Bodmin<br/>Cornwall<br/>PL31 2FJ"", ""geometry"": { ""coordinates"": [ -4.702428915, 50.46730027 ] } },"
Lidl,Bodmin,,Cornwall,PL31 2AA,-4.713885418,50.4709608,"{ ""tooltip"": ""Lidl<br/>Bodmin<br/>Cornwall<br/>PL31 2AA"", ""geometry"": { ""coordinates"": [ -4.713885418, 50.4709608 ] } },"
Aldi,Liskeard,,Cornwall,PL14 3XA,-4.45220794,50.46040958,"{ ""tooltip"": ""Aldi<br/>Liskeard<br/>Cornwall<br/>PL14 3XA"", ""geometry"": { ""coordinates"": [ -4.45220794, 50.46040958 ] } },"
Lidl,Launceston,Scarne Industrial Estate,Cornwall,PL15 9DA,-4.356229459,50.62735215,"{ ""tooltip"": ""Lidl<br/>Launceston<br/>Cornwall<br/>PL15 9DA"", ""geometry"": { ""coordinates"": [ -4.356229459, 50.62735215 ] } },"
Aldi,Ulverston,,Cumbria,LA12 7TW,-3.104440037,54.19152399,"{ ""tooltip"": ""Aldi<br/>Ulverston<br/>Cumbria<br/>LA12 7TW"", ""geometry"": { ""coordinates"": [ -3.104440037, 54.19152399 ] } },"
Aldi,Barrow-in-Furness,Central Barrow,Cumbria,LA14 2NA,-3.238699964,54.11489999,"{ ""tooltip"": ""Aldi<br/>Barrow-in-Furness<br/>Cumbria<br/>LA14 2NA"", ""geometry"": { ""coordinates"": [ -3.238699964, 54.11489999 ] } },"
Aldi,Barrow-in-Furness,Newbarns,Cumbria,LA13 9RA,-3.210613066,54.11586126,"{ ""tooltip"": ""Aldi<br/>Barrow-in-Furness<br/>Cumbria<br/>LA13 9RA"", ""geometry"": { ""coordinates"": [ -3.210613066, 54.11586126 ] } },"
Aldi,Penrith,Pooley Bridge,Cumbria,CA11 7GS,-2.759880633,54.65972339,"{ ""tooltip"": ""Aldi<br/>Penrith<br/>Cumbria<br/>CA11 7GS"", ""geometry"": { ""coordinates"": [ -2.759880633, 54.65972339 ] } },"
Aldi,Carlisle,Harraby,Cumbria,CA1 3AG,-2.90753657,54.8769145,"{ ""tooltip"": ""Aldi<br/>Carlisle<br/>Cumbria<br/>CA1 3AG"", ""geometry"": { ""coordinates"": [ -2.90753657, 54.8769145 ] } },"
Aldi,Kendal,Sandylands,Cumbria,LA9 6DU,-2.734778764,54.33999531,"{ ""tooltip"": ""Aldi<br/>Kendal<br/>Cumbria<br/>LA9 6DU"", ""geometry"": { ""coordinates"": [ -2.734778764, 54.33999531 ] } },"
Aldi,Carlisle,Kingstown,Cumbria,CA3 0AJ,-2.942396706,54.91439465,"{ ""tooltip"": ""Aldi<br/>Carlisle<br/>Cumbria<br/>CA3 0AJ"", ""geometry"": { ""coordinates"": [ -2.942396706, 54.91439465 ] } },"
Lidl,Carlisle,Belle Vue,Cumbria,CA2 5BT,-2.938106931,54.89050766,"{ ""tooltip"": ""Lidl<br/>Carlisle<br/>Cumbria<br/>CA2 5BT"", ""geometry"": { ""coordinates"": [ -2.938106931, 54.89050766 ] } },"
Lidl,Wigton,,Cumbria,CA7 9HG,-3.15614124,54.82612251,"{ ""tooltip"": ""Lidl<br/>Wigton<br/>Cumbria<br/>CA7 9HG"", ""geometry"": { ""coordinates"": [ -3.15614124, 54.82612251 ] } },"
Aldi,Carlisle,Belle Vue,Cumbria,CA2 5NP,-2.94777568,54.89036953,"{ ""tooltip"": ""Aldi<br/>Carlisle<br/>Cumbria<br/>CA2 5NP"", ""geometry"": { ""coordinates"": [ -2.94777568, 54.89036953 ] } },"
Aldi,Whitehaven,Hensingham,Cumbria,CA28 9DL,-3.590100392,54.5444528,"{ ""tooltip"": ""Aldi<br/>Whitehaven<br/>Cumbria<br/>CA28 9DL"", ""geometry"": { ""coordinates"": [ -3.590100392, 54.5444528 ] } },"
Aldi,Workington,Workington,Cumbria,CA14 3YW,-3.563261175,54.64158658,"{ ""tooltip"": ""Aldi<br/>Workington<br/>Cumbria<br/>CA14 3YW"", ""geometry"": { ""coordinates"": [ -3.563261175, 54.64158658 ] } },"
Aldi,Cockermouth,,Cumbria,CA13 0HH,-3.37298428,54.66299495,"{ ""tooltip"": ""Aldi<br/>Cockermouth<br/>Cumbria<br/>CA13 0HH"", ""geometry"": { ""coordinates"": [ -3.37298428, 54.66299495 ] } },"
Lidl,Maryport,,Cumbria,CA15 6DF,-3.499329887,54.71134712,"{ ""tooltip"": ""Lidl<br/>Maryport<br/>Cumbria<br/>CA15 6DF"", ""geometry"": { ""coordinates"": [ -3.499329887, 54.71134712 ] } },"
Lidl,Cockermouth,,Cumbria,CA13 9PX,-3.364743986,54.66103828,"{ ""tooltip"": ""Lidl<br/>Cockermouth<br/>Cumbria<br/>CA13 9PX"", ""geometry"": { ""coordinates"": [ -3.364743986, 54.66103828 ] } },"
Lidl,Waltham Abbey,,Essex,EN9 1JD,0.000829876,51.68323408,"{ ""tooltip"": ""Lidl<br/>Waltham Abbey<br/>Essex<br/>EN9 1JD"", ""geometry"": { ""coordinates"": [ 0.000829876, 51.68323408 ] } },"
Lidl,Witham,Witham Town Centre,Essex,CM18 1BT,0.633769897,51.79731586,"{ ""tooltip"": ""Lidl<br/>Witham<br/>Essex<br/>CM18 1BT"", ""geometry"": { ""coordinates"": [ 0.633769897, 51.79731586 ] } },"
Aldi,Witham,Witham Town Centre,Essex,CM8 1XU,0.622826286,51.78761318,"{ ""tooltip"": ""Aldi<br/>Witham<br/>Essex<br/>CM8 1XU"", ""geometry"": { ""coordinates"": [ 0.622826286, 51.78761318 ] } },"
Lidl,Southend-On-Sea,Central Southend,Essex,SS2 5PY,0.715729098,51.54452027,"{ ""tooltip"": ""Lidl<br/>Southend-On-Sea<br/>Essex<br/>SS2 5PY"", ""geometry"": { ""coordinates"": [ 0.715729098, 51.54452027 ] } },"
Aldi,Southend-On-Sea,Leigh-on-Sea,Essex,SS0 9HQ,0.68113117,51.5453896,"{ ""tooltip"": ""Aldi<br/>Southend-On-Sea<br/>Essex<br/>SS0 9HQ"", ""geometry"": { ""coordinates"": [ 0.68113117, 51.5453896 ] } },"
Aldi,Southend-On-Sea,Prittlewell,Essex,SS2 6AH,0.70698889,51.55591958,"{ ""tooltip"": ""Aldi<br/>Southend-On-Sea<br/>Essex<br/>SS2 6AH"", ""geometry"": { ""coordinates"": [ 0.70698889, 51.55591958 ] } },"
Lidl,Maldon,,Essex,CM9 4LQ,0.67979396,51.73625453,"{ ""tooltip"": ""Lidl<br/>Maldon<br/>Essex<br/>CM9 4LQ"", ""geometry"": { ""coordinates"": [ 0.67979396, 51.73625453 ] } },"
Aldi,Maldon,,Essex,CM9 4DY,0.681902629,51.73643268,"{ ""tooltip"": ""Aldi<br/>Maldon<br/>Essex<br/>CM9 4DY"", ""geometry"": { ""coordinates"": [ 0.681902629, 51.73643268 ] } },"
Lidl,Southend-On-Sea,Eastwood,Essex,SS9 5PR,0.645159876,51.57048267,"{ ""tooltip"": ""Lidl<br/>Southend-On-Sea<br/>Essex<br/>SS9 5PR"", ""geometry"": { ""coordinates"": [ 0.645159876, 51.57048267 ] } },"
Lidl,Southend-On-Sea,Hadleigh,Essex,SS7 2DE,0.611250267,51.55206826,"{ ""tooltip"": ""Lidl<br/>Southend-On-Sea<br/>Essex<br/>SS7 2DE"", ""geometry"": { ""coordinates"": [ 0.611250267, 51.55206826 ] } },"
Lidl,Southend-On-Sea,Central Southend,Essex,SS1 1PA,0.70506607,51.54204889,"{ ""tooltip"": ""Lidl<br/>Southend-On-Sea<br/>Essex<br/>SS1 1PA"", ""geometry"": { ""coordinates"": [ 0.70506607, 51.54204889 ] } },"
Lidl,Southend-On-Sea,Southchurch,Essex,SS1 2SE,0.73017176,51.53503957,"{ ""tooltip"": ""Lidl<br/>Southend-On-Sea<br/>Essex<br/>SS1 2SE"", ""geometry"": { ""coordinates"": [ 0.73017176, 51.53503957 ] } },"
Lidl,Harlow,Kingsmoor,Essex,CM18 7PJ,0.092965657,51.75343792,"{ ""tooltip"": ""Lidl<br/>Harlow<br/>Essex<br/>CM18 7PJ"", ""geometry"": { ""coordinates"": [ 0.092965657, 51.75343792 ] } },"
Lidl,Loughton,Debden,Essex,IG10 1LH,0.065861137,51.65584063,"{ ""tooltip"": ""Lidl<br/>Loughton<br/>Essex<br/>IG10 1LH"", ""geometry"": { ""coordinates"": [ 0.065861137, 51.65584063 ] } },"
Aldi,Harlow,Mark Hall,Essex,CM20 3FA,0.112522684,51.77628434,"{ ""tooltip"": ""Aldi<br/>Harlow<br/>Essex<br/>CM20 3FA"", ""geometry"": { ""coordinates"": [ 0.112522684, 51.77628434 ] } },"
Aldi,Loughton,Debden,Essex,IG10 3FT,0.086210089,51.64305018,"{ ""tooltip"": ""Aldi<br/>Loughton<br/>Essex<br/>IG10 3FT"", ""geometry"": { ""coordinates"": [ 0.086210089, 51.64305018 ] } },"
Aldi,Saffron Walden,,Essex,CB10 2UQ,0.255320789,52.01369727,"{ ""tooltip"": ""Aldi<br/>Saffron Walden<br/>Essex<br/>CB10 2UQ"", ""geometry"": { ""coordinates"": [ 0.255320789, 52.01369727 ] } },"
Aldi,Basildon,Pitsea,Essex,SS13 3DU,0.50494108,51.56660887,"{ ""tooltip"": ""Aldi<br/>Basildon<br/>Essex<br/>SS13 3DU"", ""geometry"": { ""coordinates"": [ 0.50494108, 51.56660887 ] } },"
Lidl,Basildon,Pitsea,Essex,SS13 3AB,0.507450991,51.56454874,"{ ""tooltip"": ""Lidl<br/>Basildon<br/>Essex<br/>SS13 3AB"", ""geometry"": { ""coordinates"": [ 0.507450991, 51.56454874 ] } },"
Lidl,Basildon,Felmores,Essex,SS14 3HZ,0.482152367,51.59090187,"{ ""tooltip"": ""Lidl<br/>Basildon<br/>Essex<br/>SS14 3HZ"", ""geometry"": { ""coordinates"": [ 0.482152367, 51.59090187 ] } },"
Aldi,Chelmsford,Central Chelmsford,Essex,CM2 7PR,0.480951638,51.72750666,"{ ""tooltip"": ""Aldi<br/>Chelmsford<br/>Essex<br/>CM2 7PR"", ""geometry"": { ""coordinates"": [ 0.480951638, 51.72750666 ] } },"
Lidl,Chelmsford,Moulsham Lodge,Essex,CM2 9DG,0.477059504,51.72311161,"{ ""tooltip"": ""Lidl<br/>Chelmsford<br/>Essex<br/>CM2 9DG"", ""geometry"": { ""coordinates"": [ 0.477059504, 51.72311161 ] } },"
Lidl,Canvey Island,Long Road,Essex,SS8 0PU,0.555818325,51.52317144,"{ ""tooltip"": ""Lidl<br/>Canvey Island<br/>Essex<br/>SS8 0PU"", ""geometry"": { ""coordinates"": [ 0.555818325, 51.52317144 ] } },"
Aldi,Wickford,London Road,Essex,SS11 7AJ,0.522746358,51.6137606,"{ ""tooltip"": ""Aldi<br/>Wickford<br/>Essex<br/>SS11 7AJ"", ""geometry"": { ""coordinates"": [ 0.522746358, 51.6137606 ] } },"
Aldi,Chelmsford,Central Chelmsford,Essex,CM1 3FJ,0.452934256,51.72283294,"{ ""tooltip"": ""Aldi<br/>Chelmsford<br/>Essex<br/>CM1 3FJ"", ""geometry"": { ""coordinates"": [ 0.452934256, 51.72283294 ] } },"
Aldi,Chelmsford,Springfield,Essex,CM2 6AP,0.5008734,51.74618471,"{ ""tooltip"": ""Aldi<br/>Chelmsford<br/>Essex<br/>CM2 6AP"", ""geometry"": { ""coordinates"": [ 0.5008734, 51.74618471 ] } },"
Aldi,South Benfleet,,Essex,SS7 4BX,0.551186657,51.56830138,"{ ""tooltip"": ""Aldi<br/>South Benfleet<br/>Essex<br/>SS7 4BX"", ""geometry"": { ""coordinates"": [ 0.551186657, 51.56830138 ] } },"
Lidl,Braintree,Braintree Town Centre,Essex,CM7 2QS,0.536696523,51.87897329,"{ ""tooltip"": ""Lidl<br/>Braintree<br/>Essex<br/>CM7 2QS"", ""geometry"": { ""coordinates"": [ 0.536696523, 51.87897329 ] } },"
Lidl,South Ockendon,,Essex,RM15 5AE,0.282903,51.51058772,"{ ""tooltip"": ""Lidl<br/>South Ockendon<br/>Essex<br/>RM15 5AE"", ""geometry"": { ""coordinates"": [ 0.282903, 51.51058772 ] } },"
Lidl,Basildon,Laindon,Essex,SS15 6PA,0.420858714,51.57550374,"{ ""tooltip"": ""Lidl<br/>Basildon<br/>Essex<br/>SS15 6PA"", ""geometry"": { ""coordinates"": [ 0.420858714, 51.57550374 ] } },"
Aldi,Clacton-on-Sea,Great Clacton,Essex,CO15 1NJ,1.148775042,51.79290983,"{ ""tooltip"": ""Aldi<br/>Clacton-on-Sea<br/>Essex<br/>CO15 1NJ"", ""geometry"": { ""coordinates"": [ 1.148775042, 51.79290983 ] } },"
Lidl,Clacton-on-Sea,Great Clacton,Essex,CO15 3BN,1.14721567,51.79269083,"{ ""tooltip"": ""Lidl<br/>Clacton-on-Sea<br/>Essex<br/>CO15 3BN"", ""geometry"": { ""coordinates"": [ 1.14721567, 51.79269083 ] } },"
Lidl,Clacton-on-Sea,Great Clacton,Essex,CO16 9FY,1.143900659,51.81187578,"{ ""tooltip"": ""Lidl<br/>Clacton-on-Sea<br/>Essex<br/>CO16 9FY"", ""geometry"": { ""coordinates"": [ 1.143900659, 51.81187578 ] } },"
Lidl,Harwich,Upper Dovercourt,Essex,CO12 4NX,1.258534242,51.93877813,"{ ""tooltip"": ""Lidl<br/>Harwich<br/>Essex<br/>CO12 4NX"", ""geometry"": { ""coordinates"": [ 1.258534242, 51.93877813 ] } },"
Aldi,Colchester,Central Colchester,Essex,CO1 2FJ,0.909018483,51.88526417,"{ ""tooltip"": ""Aldi<br/>Colchester<br/>Essex<br/>CO1 2FJ"", ""geometry"": { ""coordinates"": [ 0.909018483, 51.88526417 ] } },"
Aldi,Colchester,Mile End,Essex,CO1 1YN,0.910727611,51.89870151,"{ ""tooltip"": ""Aldi<br/>Colchester<br/>Essex<br/>CO1 1YN"", ""geometry"": { ""coordinates"": [ 0.910727611, 51.89870151 ] } },"
Lidl,Colchester,Old Heath,Essex,CO2 8BG,0.915170351,51.87261459,"{ ""tooltip"": ""Lidl<br/>Colchester<br/>Essex<br/>CO2 8BG"", ""geometry"": { ""coordinates"": [ 0.915170351, 51.87261459 ] } },"
Lidl,Colchester,Shrub End,Essex,CO2 9JT,0.867806776,51.86919184,"{ ""tooltip"": ""Lidl<br/>Colchester<br/>Essex<br/>CO2 9JT"", ""geometry"": { ""coordinates"": [ 0.867806776, 51.86919184 ] } },"
Aldi,Colchester,Shrub End,Essex,CO3 9DW,0.851910586,51.88948681,"{ ""tooltip"": ""Aldi<br/>Colchester<br/>Essex<br/>CO3 9DW"", ""geometry"": { ""coordinates"": [ 0.851910586, 51.88948681 ] } },"
Lidl,Grays,West Thurrock,Essex,RM20 1WN,0.278975311,51.4852129,"{ ""tooltip"": ""Lidl<br/>Grays<br/>Essex<br/>RM20 1WN"", ""geometry"": { ""coordinates"": [ 0.278975311, 51.4852129 ] } },"
Aldi,Grays,Grays,Essex,RM17 5YB,0.316695524,51.4768827,"{ ""tooltip"": ""Aldi<br/>Grays<br/>Essex<br/>RM17 5YB"", ""geometry"": { ""coordinates"": [ 0.316695524, 51.4768827 ] } },"
Aldi,Frinton-on-Sea,Walton-on-the-Naze,Essex,CO14 8FR,1.266470896,51.84965289,"{ ""tooltip"": ""Aldi<br/>Frinton-on-Sea<br/>Essex<br/>CO14 8FR"", ""geometry"": { ""coordinates"": [ 1.266470896, 51.84965289 ] } },"
Lidl,Gloucester,Quedgeley,Gloucestershire,GL2 2SN,-2.276928277,51.81817228,"{ ""tooltip"": ""Lidl<br/>Gloucester<br/>Gloucestershire<br/>GL2 2SN"", ""geometry"": { ""coordinates"": [ -2.276928277, 51.81817228 ] } },"
Aldi,Stroud,Woodchester,Gloucestershire,GL5 3TA,-2.233899965,51.73449999,"{ ""tooltip"": ""Aldi<br/>Stroud<br/>Gloucestershire<br/>GL5 3TA"", ""geometry"": { ""coordinates"": [ -2.233899965, 51.73449999 ] } },"
Lidl,Yate,Central Yate,Gloucestershire,BS37 4BA,-2.414412214,51.53868701,"{ ""tooltip"": ""Lidl<br/>Yate<br/>Gloucestershire<br/>BS37 4BA"", ""geometry"": { ""coordinates"": [ -2.414412214, 51.53868701 ] } },"
Lidl,Dursley,Lower Cam,Gloucestershire,GL11 4EJ,-2.361488059,51.68819389,"{ ""tooltip"": ""Lidl<br/>Dursley<br/>Gloucestershire<br/>GL11 4EJ"", ""geometry"": { ""coordinates"": [ -2.361488059, 51.68819389 ] } },"
Lidl,Cirencester,,Gloucestershire,GL7 1YG,-1.95921988,51.70557774,"{ ""tooltip"": ""Lidl<br/>Cirencester<br/>Gloucestershire<br/>GL7 1YG"", ""geometry"": { ""coordinates"": [ -1.95921988, 51.70557774 ] } },"
Aldi,Cirencester,,Gloucestershire,GL7 1NP,-1.953843304,51.70675504,"{ ""tooltip"": ""Aldi<br/>Cirencester<br/>Gloucestershire<br/>GL7 1NP"", ""geometry"": { ""coordinates"": [ -1.953843304, 51.70675504 ] } },"
Lidl,Gloucester,Coney Hill,Gloucestershire,GL4 4LP,-2.221886914,51.85497937,"{ ""tooltip"": ""Lidl<br/>Gloucester<br/>Gloucestershire<br/>GL4 4LP"", ""geometry"": { ""coordinates"": [ -2.221886914, 51.85497937 ] } },"
Aldi,Gloucester,Quedgeley,Gloucestershire,GL2 4QL,-2.276459843,51.82575803,"{ ""tooltip"": ""Aldi<br/>Gloucester<br/>Gloucestershire<br/>GL2 4QL"", ""geometry"": { ""coordinates"": [ -2.276459843, 51.82575803 ] } },"
Aldi,Gloucester,Hucclecote,Gloucestershire,GL3 3TH,-2.196070244,51.85873686,"{ ""tooltip"": ""Aldi<br/>Gloucester<br/>Gloucestershire<br/>GL3 3TH"", ""geometry"": { ""coordinates"": [ -2.196070244, 51.85873686 ] } },"
Lidl,Cheltenham,Hester's Way,Gloucestershire,GL51 9FJ,-2.101321232,51.91607052,"{ ""tooltip"": ""Lidl<br/>Cheltenham<br/>Gloucestershire<br/>GL51 9FJ"", ""geometry"": { ""coordinates"": [ -2.101321232, 51.91607052 ] } },"
Aldi,Cheltenham,Hester's Way,Gloucestershire,GL51 0SN,-2.10965887,51.91801479,"{ ""tooltip"": ""Aldi<br/>Cheltenham<br/>Gloucestershire<br/>GL51 0SN"", ""geometry"": { ""coordinates"": [ -2.10965887, 51.91801479 ] } },"
Lidl,Cheltenham,Lansdown,Gloucestershire,GL50 4AH,-2.0767862,51.90502327,"{ ""tooltip"": ""Lidl<br/>Cheltenham<br/>Gloucestershire<br/>GL50 4AH"", ""geometry"": { ""coordinates"": [ -2.0767862, 51.90502327 ] } },"
Lidl,Gloucester,Linden,Gloucestershire,GL1 2SQ,-2.245844154,51.87244419,"{ ""tooltip"": ""Lidl<br/>Gloucester<br/>Gloucestershire<br/>GL1 2SQ"", ""geometry"": { ""coordinates"": [ -2.245844154, 51.87244419 ] } },"
Aldi,Tewkesbury,Mitton,Gloucestershire,GL20 5SY,-2.161713258,51.98513277,"{ ""tooltip"": ""Aldi<br/>Tewkesbury<br/>Gloucestershire<br/>GL20 5SY"", ""geometry"": { ""coordinates"": [ -2.161713258, 51.98513277 ] } },"
Lidl,Bishop's Cleeve,Bishop's Cleeve,Gloucestershire,GL52 8SA,-2.063168051,51.94813079,"{ ""tooltip"": ""Lidl<br/>Bishop's Cleeve<br/>Gloucestershire<br/>GL52 8SA"", ""geometry"": { ""coordinates"": [ -2.063168051, 51.94813079 ] } },"
Aldi,Moreton-in-Marsh,,Gloucestershire,GL56 0DS,-1.705413112,51.98441586,"{ ""tooltip"": ""Aldi<br/>Moreton-in-Marsh<br/>Gloucestershire<br/>GL56 0DS"", ""geometry"": { ""coordinates"": [ -1.705413112, 51.98441586 ] } },"
Aldi,Bristol,Longwell Green,Gloucestershire,BS30 9DE,-2.494689518,51.43835502,"{ ""tooltip"": ""Aldi<br/>Bristol<br/>Gloucestershire<br/>BS30 9DE"", ""geometry"": { ""coordinates"": [ -2.494689518, 51.43835502 ] } },"
Lidl,Bristol,Hanham,Gloucestershire,BS15 3QY,-2.512023292,51.44809277,"{ ""tooltip"": ""Lidl<br/>Bristol<br/>Gloucestershire<br/>BS15 3QY"", ""geometry"": { ""coordinates"": [ -2.512023292, 51.44809277 ] } },"
Lidl,Bristol,Longwell Green,Gloucestershire,BS30 7TX,-2.500309679,51.44266994,"{ ""tooltip"": ""Lidl<br/>Bristol<br/>Gloucestershire<br/>BS30 7TX"", ""geometry"": { ""coordinates"": [ -2.500309679, 51.44266994 ] } },"
Lidl,Bristol,Kingswood,Gloucestershire,BS15 8JD,-2.509861145,51.46139938,"{ ""tooltip"": ""Lidl<br/>Bristol<br/>Gloucestershire<br/>BS15 8JD"", ""geometry"": { ""coordinates"": [ -2.509861145, 51.46139938 ] } },"
Lidl,Bristol,Mangotsfield,Gloucestershire,BS16 7AE,-2.474715014,51.49376943,"{ ""tooltip"": ""Lidl<br/>Bristol<br/>Gloucestershire<br/>BS16 7AE"", ""geometry"": { ""coordinates"": [ -2.474715014, 51.49376943 ] } },"
